[{
    "id": 9908,
    "den": "1",
    "name": "Comtel S.n.c. Di Pian Stefano & Tramacere Toni Christian",
    "sname": "& Tramacere Toni Christian",
    "add": "Via Martiri Della Liberta' 52",
    "cap": "31100",
    "city": "Treviso",
    "pv": "TV",
    "tel": "",
    "latitude": 45.6654148,
    "longitude": 12.2471746,
    "marker_class": "vodafone_store_prenota",
    "surl": "treviso-comtel-snc-di-pian-stefano-tramacere-toni-christian",
    "socials": ""
}, {
    "id": 7778,
    "den": "1",
    "name": "Segni Srl Presso Centro Commerciale Le Due Torri",
    "sname": "Presso Centro Commerciale Le Due Torri",
    "add": "Via Guzzanica 6264",
    "cap": "24040",
    "city": "Stezzano",
    "pv": "BG",
    "tel": "",
    "latitude": 45.6476905,
    "longitude": 9.6299385,
    "marker_class": "vodafone_store_prenota",
    "surl": "stezzano-segni-srl-presso-centro-commerciale-le-due-torri",
    "socials": ""
}, {
    "id": 17567,
    "den": "1",
    "name": "Sartini Lucio S.n.c. Di Sartini Lucilla E Sartini Robert",
    "sname": "Di Sartini Lucilla E Sartini Robert",
    "add": "Corso Matteotti 188",
    "cap": "61032",
    "city": "Fano",
    "pv": "PU",
    "tel": "",
    "latitude": 43.6013688,
    "longitude": 13.325787,
    "marker_class": "vodafone_store_prenota",
    "surl": "fano-sartini-lucio-snc-di-sartini-lucilla-e-sartini-robert",
    "socials": ""
}, {
    "id": 1259,
    "den": "1",
    "name": "Vodafone Centro Comm Cuneo",
    "sname": "",
    "add": "Via Margarita 8",
    "cap": "12100",
    "city": "Tetto Garetto",
    "pv": "CN",
    "tel": "",
    "latitude": 44.3888087,
    "longitude": 7.5471107,
    "marker_class": "vodafone_store_prenota",
    "surl": "tetto-garetto-vodafone-centro-comm-cuneo",
    "socials": ""
}, {
    "id": 267,
    "den": "1",
    "name": "Vodafone Viale Diaz",
    "sname": "",
    "add": "Viale Armando Diaz 59",
    "cap": "09170",
    "city": "Oristano",
    "pv": "OR",
    "tel": "0783/300673",
    "latitude": 39.904585,
    "longitude": 8.5866205,
    "marker_class": "vodafone_store_prenota",
    "surl": "oristano-vodafone-viale-diaz",
    "socials": ""
}, {
    "id": 9448,
    "den": "1",
    "name": "Commtech Di Borile Fabrizio",
    "sname": "",
    "add": "Corso Vittorio Emanuele Ii 14",
    "cap": "33170",
    "city": "Pordenone",
    "pv": "PN",
    "tel": "",
    "latitude": 46.058599,
    "longitude": 13.2286226,
    "marker_class": "vodafone_store_prenota",
    "surl": "pordenone-commtech-di-borile-fabrizio",
    "socials": ""
}, {
    "id": 2381,
    "den": "1",
    "name": "Esposito Fabrizio",
    "sname": "",
    "add": "Via Roma 2628",
    "cap": "80100",
    "city": "Giugliano In Campania",
    "pv": "NA",
    "tel": "081/18460235",
    "latitude": 40.9277605,
    "longitude": 14.2033324,
    "marker_class": "vodafone_store_prenota",
    "surl": "giugliano-in-campania-esposito-fabrizio",
    "socials": ""
}, {
    "id": 17631,
    "den": "1",
    "name": "Foto Pellegrini Di Pellegrini Ingrid E C. Snc",
    "sname": "Di Pellegrini Ingrid E C. Snc",
    "add": "Via San Pietro 3",
    "cap": "38122",
    "city": "Trento",
    "pv": "TN",
    "tel": "",
    "latitude": 46.3649903,
    "longitude": 11.0352309,
    "marker_class": "vodafone_store_prenota",
    "surl": "trento-foto-pellegrini-di-pellegrini-ingrid-e-c-snc",
    "socials": ""
}, {
    "id": 2990,
    "den": "1",
    "name": "C.d.f. Telecomunicazioni S.r.l. Presso Centro Commerciale Latina Fiori",
    "sname": "Presso Centro Commerciale Latina Fiori",
    "add": "Via Pier Luigi Nervi Snc",
    "cap": "04100",
    "city": "Latina",
    "pv": "LT",
    "tel": "3442033091",
    "latitude": 41.4675671,
    "longitude": 12.9035965,
    "marker_class": "vodafone_store_prenota",
    "surl": "latina-cdf-telecomunicazioni-srl-presso-centro-commerciale-latina-fiori",
    "socials": ""
}, {
    "id": 17636,
    "den": "1",
    "name": "Palmic Srl Presso Centro Commerciale Mongolfiera Foggia",
    "sname": "Presso Centro Commerciale Mongolfiera Foggia",
    "add": "Viale Degli Aviatori 126",
    "cap": "71100",
    "city": "Foggia",
    "pv": "FG",
    "tel": "",
    "latitude": 41.445848,
    "longitude": 15.543247,
    "marker_class": "vodafone_store_prenota",
    "surl": "foggia-palmic-srl-presso-centro-commerciale-mongolfiera-foggia",
    "socials": ""
}, {
    "id": 3206,
    "den": "1",
    "name": "App Store Srls",
    "sname": "",
    "add": "Via Bari 3537",
    "cap": "70022",
    "city": "Altamura",
    "pv": "BA",
    "tel": "",
    "latitude": 40.8307953,
    "longitude": 16.5549143,
    "marker_class": "vodafone_store_prenota",
    "surl": "altamura-app-store-srls",
    "socials": ""
}, {
    "id": 3125,
    "den": "1",
    "name": "Mavi Srl Presso Centro Commerciale San Donato",
    "sname": "Presso Centro Commerciale San Donato",
    "add": "Via Carlo Ludovico Ragghianti 16",
    "cap": "50127",
    "city": "Firenze",
    "pv": "FI",
    "tel": "",
    "latitude": 43.7910007,
    "longitude": 11.2277164,
    "marker_class": "vodafone_store_prenota",
    "surl": "firenze-mavi-srl-presso-centro-commerciale-san-donato",
    "socials": ""
}, {
    "id": 3370,
    "den": "1",
    "name": "Fly Store Srls",
    "sname": "",
    "add": "Via Brigata Sassari 56",
    "cap": "07100",
    "city": "Sassari",
    "pv": "SS",
    "tel": "",
    "latitude": 40.7246322,
    "longitude": 8.5617084,
    "marker_class": "vodafone_store_prenota",
    "surl": "sassari-fly-store-srls",
    "socials": ""
}, {
    "id": 17646,
    "den": "1",
    "name": "Vodafone Pinerolo",
    "sname": "",
    "add": "Via Michele Buniva Ang.via Monte 87",
    "cap": "10064",
    "city": "Pinerolo",
    "pv": "TO",
    "tel": "342.5641054",
    "latitude": 44.887712,
    "longitude": 7.334768,
    "marker_class": "vodafone_store_prenota",
    "surl": "pinerolo-made-srl",
    "socials": ""
}, {
    "id": 3559,
    "den": "1",
    "name": "Smart Srl",
    "sname": "",
    "add": "Piazza Fossatello 2 R",
    "cap": "16100",
    "city": "Genova",
    "pv": "GE",
    "tel": "",
    "latitude": 44.4119622,
    "longitude": 8.928948,
    "marker_class": "vodafone_store_prenota",
    "surl": "genova-smart-srl",
    "socials": ""
}, {
    "id": 5808,
    "den": "1",
    "name": "Vodafone Piazza Dante",
    "sname": "",
    "add": "Piazza Dante 90a",
    "cap": "80135",
    "city": "Napoli",
    "pv": "NA",
    "tel": "081/18560354\t",
    "latitude": 40.7885422,
    "longitude": 14.3692123,
    "marker_class": "vodafone_store_prenota",
    "surl": "napoli-vodafone-piazza-dante",
    "socials": ""
}, {
    "id": 7709,
    "den": "1",
    "name": "Essestore Srls Presso Centro Commerciale Val Vibrata",
    "sname": "Presso Centro Commerciale Val Vibrata",
    "add": "C.da Rio Moro Snc",
    "cap": "64010",
    "city": "Colonnella",
    "pv": "TE",
    "tel": "",
    "latitude": 42.8620992,
    "longitude": 13.8484016,
    "marker_class": "vodafone_store_prenota",
    "surl": "colonnella-essestore-srls-presso-centro-commerciale-val-vibrata",
    "socials": ""
}, {
    "id": 9465,
    "den": "1",
    "name": "Netfi Srl",
    "sname": "",
    "add": "Piazza Dalmazia 55r-56r",
    "cap": "50141",
    "city": "Firenze",
    "pv": "FI",
    "tel": "+390554220431",
    "latitude": 43.7952832,
    "longitude": 11.2406107,
    "marker_class": "vodafone_store_prenota",
    "surl": "firenze-netfi-srl",
    "socials": ""
}, {
    "id": 7796,
    "den": "1",
    "name": "Antar S.r.l.",
    "sname": "",
    "add": "Via Indipendenza 41",
    "cap": "88100",
    "city": "Catanzaro",
    "pv": "CZ",
    "tel": "0961022047",
    "latitude": 38.9118911,
    "longitude": 16.5869338,
    "marker_class": "vodafone_store_prenota",
    "surl": "catanzaro-antar-srl",
    "socials": ""
}, {
    "id": 9479,
    "den": "1",
    "name": "Allegretti Davide",
    "sname": "",
    "add": "Corso Italia 100",
    "cap": "34170",
    "city": "Gorizia",
    "pv": "GO",
    "tel": "",
    "latitude": 45.9407794,
    "longitude": 13.6163327,
    "marker_class": "vodafone_store_prenota",
    "surl": "gorizia-allegretti-davide",
    "socials": ""
}, {
    "id": 10197,
    "den": "1",
    "name": "Redsmile Des Ewald Mayer",
    "sname": "",
    "add": "Parco Tschurtschenthaler 4",
    "cap": "39031",
    "city": "Brunico",
    "pv": "BZ",
    "tel": "",
    "latitude": 46.7950977,
    "longitude": 11.9358432,
    "marker_class": "vodafone_store_prenota",
    "surl": "brunico-redsmile-des-ewald-mayer",
    "socials": ""
}, {
    "id": 17684,
    "den": "1",
    "name": "All Around Srls Presso Centro Commerciale Coop Mugello",
    "sname": "Presso Centro Commerciale Coop Mugello",
    "add": "Piazza Martin Luther King 5-6",
    "cap": "50032",
    "city": "Borgo San Lorenzo",
    "pv": "FI",
    "tel": "",
    "latitude": 43.9527269,
    "longitude": 11.3802309,
    "marker_class": "vodafone_store_prenota",
    "surl": "borgo-san-lorenzo-all-around-srls-presso-centro-commerciale-coop-mugello",
    "socials": ""
}, {
    "id": 9931,
    "den": "1",
    "name": "Globit Servizi Societa' Cooperativa",
    "sname": "",
    "add": "Corso Roma 11",
    "cap": "73014",
    "city": "Gallipoli",
    "pv": "LE",
    "tel": "0833/266063",
    "latitude": 40.055886,
    "longitude": 17.992235,
    "marker_class": "vodafone_store_prenota",
    "surl": "gallipoli-globit-servizi-societa039-cooperativa",
    "socials": ""
}, {
    "id": 17719,
    "den": "1",
    "name": "Pacosama Srl",
    "sname": "",
    "add": "Via Sant'agata 69",
    "cap": "87027",
    "city": "Paola",
    "pv": "CS",
    "tel": "",
    "latitude": 39.366312,
    "longitude": 16.029284,
    "marker_class": "vodafone_store_prenota",
    "surl": "paola-pacosama-srl",
    "socials": ""
}, {
    "id": 17752,
    "den": "1",
    "name": "De Angelis Dominga",
    "sname": "",
    "add": "Via Dante Alighieri 2",
    "cap": "03039",
    "city": "Sora",
    "pv": "FR",
    "tel": "",
    "latitude": 41.71599,
    "longitude": 13.610938,
    "marker_class": "vodafone_store_prenota",
    "surl": "sora-de-angelis-dominga",
    "socials": ""
}, {
    "id": 17453,
    "den": "0",
    "name": "Vodafone Cantore",
    "sname": "Giovanni & C.",
    "add": "Via Cantore Sampierdarena 200 R",
    "cap": "16149",
    "city": "Genova",
    "pv": "GE",
    "tel": "010/460343",
    "latitude": 44.41071,
    "longitude": 8.903217,
    "marker_class": "vodafone_store",
    "surl": "genova-vodafone-cantore",
    "socials": "Facebook~https://www.facebook.com/VODAFONESTORECANTORE/§Instagram~https://www.instagram.com/vodafonestorecantore/?hl=it"
}, {
    "id": 17456,
    "den": "0",
    "name": "Vodafone Via Firenze",
    "sname": "",
    "add": "Via Firenze 104 104a",
    "cap": "95128",
    "city": "Catania",
    "pv": "CT",
    "tel": "095/387387",
    "latitude": 37.516011,
    "longitude": 15.092445,
    "marker_class": "vodafone_store",
    "surl": "catania-vodafone-via-firenze",
    "socials": "Facebook~https://www.facebook.com/vodafone.catania/§Instagram~https://www.instagram.com/vodafone_catania/"
}, {
    "id": 17457,
    "den": "0",
    "name": "Vodafone C.so Belgio",
    "sname": "Belgio",
    "add": "C.so Belgio 155157",
    "cap": "10153",
    "city": "Torino",
    "pv": "TO",
    "tel": "011/8989239",
    "latitude": 45.075019,
    "longitude": 7.723731,
    "marker_class": "vodafone_store",
    "surl": "torino-vodafone-cso-belgio",
    "socials": "Facebook~https://www.facebook.com/vodafonetorinoaura/§Instagram~https://www.instagram.com/vodafonestoreaurabelgio/"
}, {
    "id": 17459,
    "den": "0",
    "name": "Vodafone P.za Della Vittoria",
    "sname": "",
    "add": "Piazza Della Vittoria 45-47r",
    "cap": "16121",
    "city": "Genova",
    "pv": "GE",
    "tel": "010/588648",
    "latitude": 44.402173,
    "longitude": 8.943834,
    "marker_class": "vodafone_store",
    "surl": "genova-vodafone-pza-della-vittoria",
    "socials": "Facebook~https://www.facebook.com/VodafoneStoreVittoria/§Instagram~https://www.instagram.com/vodafonepiazzadellavittoria/"
}, {
    "id": 17462,
    "den": "0",
    "name": "Vodafone Lido",
    "sname": "",
    "add": "Gran Viale S. Maria Elisabetta 6a",
    "cap": "30126",
    "city": "Venezia",
    "pv": "VE",
    "tel": "041/2760826",
    "latitude": 45.417633,
    "longitude": 12.369001,
    "marker_class": "vodafone_store",
    "surl": "venezia-vodafone-lido",
    "socials": "Facebook~https://www.facebook.com/VodafoneStoreLidoDiVenezia/§Instagram~https://www.instagram.com/vodafonelido/"
}, {
    "id": 17463,
    "den": "0",
    "name": "Vodafone Resana",
    "sname": "",
    "add": "Via Castellana 32",
    "cap": "31023",
    "city": "Resana",
    "pv": "TV",
    "tel": "0423 480699",
    "latitude": 45.635694,
    "longitude": 11.955049,
    "marker_class": "vodafone_store",
    "surl": "resana-vodafone-resana",
    "socials": "Facebook~https://www.facebook.com/CampagnaroResanaVodafoneEuronics/§Instagram~https://www.instagram.com/vodafone_store_resana/"
}, {
    "id": 17465,
    "den": "0",
    "name": "Vodafone Feltre",
    "sname": "",
    "add": "Via Aurora 3",
    "cap": "32032",
    "city": "Feltre",
    "pv": "BL",
    "tel": "0439/89900",
    "latitude": 46.020414,
    "longitude": 11.897588,
    "marker_class": "vodafone_store",
    "surl": "feltre-vodafone-feltre",
    "socials": "Facebook~https://www.facebook.com/vodafone.store.feltre/§Instagram~https://www.instagram.com/onefeltre/"
}, {
    "id": 17466,
    "den": "0",
    "name": "Vodafone Cimavilla",
    "sname": "",
    "add": "Via Cadore Mare 98",
    "cap": "31013",
    "city": "Cimavilla Di Codogne'",
    "pv": "TV",
    "tel": "0438/794082",
    "latitude": 45.867181,
    "longitude": 12.395242,
    "marker_class": "vodafone_store",
    "surl": "cimavilla-di-codogne039-vodafone-cimavilla",
    "socials": "Facebook~https://www.facebook.com/vodafoneforest/§Instagram~https://www.instagram.com/vodafone.forest/"
}, {
    "id": 17476,
    "den": "0",
    "name": "Vodafone Villafranca",
    "sname": "",
    "add": "Corso Vittorio Emanuele Ii 67",
    "cap": "37069",
    "city": "Villafranca Di Verona",
    "pv": "VR",
    "tel": "045/2063524",
    "latitude": 45.353606,
    "longitude": 10.846028,
    "marker_class": "vodafone_store",
    "surl": "villafranca-di-verona-vodafone-villafranca",
    "socials": "Facebook~https://www.facebook.com/vodafonestorevillafranca/§Instagram~https://www.instagram.com/vodafonevillafrancadiverona/"
}, {
    "id": 17492,
    "den": "0",
    "name": "Vodafone Nas I",
    "sname": "Presso Base Sigonella Nas1",
    "add": "Contrada Fontanazza Ss 192 Km 8 2",
    "cap": "95040",
    "city": "Motta Sant'anastasia",
    "pv": "CT",
    "tel": "095/564493",
    "latitude": 37.467196,
    "longitude": 14.953645,
    "marker_class": "vodafone_store",
    "surl": "motta-sant039anastasia-vodafone-nas-i",
    "socials": "Facebook~https://www.facebook.com/vodafonestoresigonella/§Instagram~https://www.instagram.com/vodafone_store_sigonella/"
}, {
    "id": 17551,
    "den": "0",
    "name": "Vodafone San Lazzaro",
    "sname": "",
    "add": "Viale San Lazzaro 161",
    "cap": "36100",
    "city": "Vicenza",
    "pv": "VI",
    "tel": "3488449558",
    "latitude": 45.537477,
    "longitude": 11.515322,
    "marker_class": "vodafone_store",
    "surl": "vicenza-vodafone-san-lazzaro",
    "socials": "Facebook~https://www.facebook.com/vodafonestoreSanLazzaro/§Instagram~https://www.instagram.com/vodafonestorevicenza/"
}, {
    "id": 17561,
    "den": "0",
    "name": "Vodafone Le Fontane",
    "sname": "Presso C.comm.le Fontane",
    "add": "Viale Emilia 61",
    "cap": "88100",
    "city": "Catanzaro",
    "pv": "CZ",
    "tel": "0961/719423",
    "latitude": 38.844635,
    "longitude": 16.645614,
    "marker_class": "vodafone_store",
    "surl": "catanzaro-vodafone-le-fontane",
    "socials": "Facebook~https://www.facebook.com/VodafoneLeFontane/§Instagram~https://www.instagram.com/vodafonelefontane/"
}, {
    "id": 17563,
    "den": "0",
    "name": "Vodafone Portici",
    "sname": "",
    "add": "V.le L. Da Vinci 95",
    "cap": "80055",
    "city": "Portici",
    "pv": "NA",
    "tel": "3474974623",
    "latitude": 40.817794,
    "longitude": 14.341159,
    "marker_class": "vodafone_store",
    "surl": "portici-vodafone-portici",
    "socials": "Facebook~https://www.facebook.com/vodafonestoreportici/§Instagram~https://www.instagram.com/vodafone.portici/"
}, {
    "id": 17566,
    "den": "0",
    "name": "Vodafone Boccea",
    "sname": "",
    "add": "Via Di Boccea 180",
    "cap": "00167",
    "city": "Roma",
    "pv": "RM",
    "tel": "06/66019743",
    "latitude": 41.902906,
    "longitude": 12.423025,
    "marker_class": "vodafone_store",
    "surl": "roma-vodafone-boccea",
    "socials": "Facebook~https://www.facebook.com/vodafoneBoccea/§Instagram~https://instagram.com/vodafoneromaboccea?"
}, {
    "id": 17568,
    "den": "0",
    "name": "Vodafone Canevari",
    "sname": "",
    "add": "Via Canevari 50r",
    "cap": "16137",
    "city": "Genova",
    "pv": "GE",
    "tel": "010/881795",
    "latitude": 44.411204,
    "longitude": 8.952084,
    "marker_class": "vodafone_store",
    "surl": "genova-vodafone-canevari",
    "socials": "Facebook~https://www.facebook.com/vodafonecanevari/§Instagram~https://www.instagram.com/vodafone_canevari_genova/"
}, {
    "id": 17569,
    "den": "0",
    "name": "Vodafone Corso Nizza",
    "sname": "",
    "add": "Corso Nizza 1",
    "cap": "12100",
    "city": "Cuneo",
    "pv": "CN",
    "tel": "3490510118",
    "latitude": 44.3887,
    "longitude": 7.547089,
    "marker_class": "vodafone_store",
    "surl": "cuneo-vodafone-corso-nizza",
    "socials": "Facebook~https://www.facebook.com/Vodafone-Store-Cuneo-104499257707528/§Instagram~https://www.instagram.com/vodafonestorecn/"
}, {
    "id": 17571,
    "den": "0",
    "name": "Vodafone Vasto",
    "sname": "",
    "add": "Viale Giulio Cesare 15",
    "cap": "66054",
    "city": "Vasto",
    "pv": "CH",
    "tel": "3457600991",
    "latitude": 42.123867,
    "longitude": 14.706868,
    "marker_class": "vodafone_store",
    "surl": "vasto-vodafone-vasto",
    "socials": "Facebook~https://www.facebook.com/vodafonestoreviagiuliocesarevasto/§Instagram~https://instagram.com/vodafonestorevasto?igshid=k3a30fg6mt01"
}, {
    "id": 17574,
    "den": "0",
    "name": "Vodafone Tiburtina",
    "sname": "",
    "add": "Via Tiburtina 621",
    "cap": "00159",
    "city": "Roma",
    "pv": "RM",
    "tel": "3494150060",
    "latitude": 41.909178,
    "longitude": 12.546057,
    "marker_class": "vodafone_store",
    "surl": "roma-vodafone-tiburtina",
    "socials": "Facebook~https://www.facebook.com/vodafoneromatiburtina/§Instagram~https://www.instagram.com/vodafonestoretiburtina/"
}, {
    "id": 17580,
    "den": "0",
    "name": "Vodafone I Gigli",
    "sname": "Presso Centro Commerciale I Gigli",
    "add": "Via San Quirico 165",
    "cap": "50013",
    "city": "Campi Bisenzio",
    "pv": "FI",
    "tel": "0558974718",
    "latitude": 43.840928,
    "longitude": 11.138645,
    "marker_class": "vodafone_store",
    "surl": "campi-bisenzio-vodafone-i-gigli",
    "socials": "Facebook~https://www.facebook.com/Vodafonestoregigli/§Instagram~https://www.instagram.com/vodafoneigigli/"
}, {
    "id": 17584,
    "den": "0",
    "name": "Vodafone I Giardini Del Sole",
    "sname": "Presso Centro Commerciale I Giardini Del Sole",
    "add": "Via Dei Carpani 21b",
    "cap": "31033",
    "city": "Castelfranco Veneto",
    "pv": "TV",
    "tel": "0423 192 3395",
    "latitude": 45.681342,
    "longitude": 11.942007,
    "marker_class": "vodafone_store",
    "surl": "castelfranco-veneto-vodafone-i-giardini-del-sole",
    "socials": "Facebook~https://www.facebook.com/vodafonestoreigiardinidelsole-106354427656727/§Instagram~https://www.instagram.com/vodafonestoreigiardinidelsole/"
}, {
    "id": 17589,
    "den": "0",
    "name": "Vodafone Val Di Susa",
    "sname": "",
    "add": "Via Moncenisio 136",
    "cap": "10050",
    "city": "S. Antonino Di Susa",
    "pv": "TO",
    "tel": "011/9649914",
    "latitude": 45.107826,
    "longitude": 7.280647,
    "marker_class": "vodafone_store",
    "surl": "s-antonino-di-susa-vodafone-val-di-susa",
    "socials": "Facebook~https://www.facebook.com/Vodafone-Store-Val-di-Susa-630708863727448/§Instagram~https://www.instagram.com/vodafonestorevaldisusa/"
}, {
    "id": 17591,
    "den": "0",
    "name": "Vodafone Rescaldina",
    "sname": "Presso Centro Commerciale Auchan Rescaldina",
    "add": "Via Togliatti 2",
    "cap": "20027",
    "city": "Rescaldina",
    "pv": "MI",
    "tel": "0331/579920",
    "latitude": 45.610548,
    "longitude": 8.965289,
    "marker_class": "vodafone_store",
    "surl": "rescaldina-vodafone-rescaldina",
    "socials": "Facebook~https://www.facebook.com/storevodafonerescaldina/§Instagram~https://www.instagram.com/vodafone.rescaldina/"
}, {
    "id": 17593,
    "den": "0",
    "name": "Vodafone Buenos Aires 18",
    "sname": "",
    "add": "Corso Buenos Aires 18",
    "cap": "20124",
    "city": "Milano",
    "pv": "MI",
    "tel": "0229403568",
    "latitude": 45.47698,
    "longitude": 9.207669,
    "marker_class": "vodafone_store",
    "surl": "milano-vodafone-buenos-aires-18",
    "socials": "Facebook~https://www.facebook.com/programsrl.eu/?ref=br_rs§Instagram~https://www.instagram.com/vodafonestorebaires18/"
}, {
    "id": 17594,
    "den": "0",
    "name": "Vodafone Piero Della Francesca",
    "sname": "",
    "add": "Via Piero Della Francesca 23",
    "cap": "20154",
    "city": "Milano",
    "pv": "MI",
    "tel": "0234931669",
    "latitude": 45.48316,
    "longitude": 9.165058,
    "marker_class": "vodafone_store",
    "surl": "milano-vodafone-piero-della-francesca",
    "socials": "Facebook~https://www.facebook.com/programsrlpdf/§Instagram~https://www.instagram.com/vspierodellafrancesca/?hl=it"
}, {
    "id": 17595,
    "den": "0",
    "name": "Vodafone Marassi",
    "sname": "",
    "add": "Corso De Stefanis 83",
    "cap": "16100",
    "city": "Genova",
    "pv": "GE",
    "tel": "3495438094",
    "latitude": 44.422117,
    "longitude": 8.949093,
    "marker_class": "vodafone_store",
    "surl": "genova-vodafone-marassi",
    "socials": "Facebook~https://www.facebook.com/Vodafone-it-1553920581309442/§Instagram~https://www.instagram.com/vodafone_store_marassi/"
}, {
    "id": 17603,
    "den": "0",
    "name": "Vodafone Piazza Gavinana",
    "sname": "",
    "add": "Piazza Gavinana 1",
    "cap": "50100",
    "city": "Firenze",
    "pv": "FI",
    "tel": "055/9103702",
    "latitude": 43.762501,
    "longitude": 11.282541,
    "marker_class": "vodafone_store",
    "surl": "firenze-vodafone-piazza-gavinana",
    "socials": "Facebook~https://www.facebook.com/vodafonestorefirenzegavinana/§Instagram~https://instagram.com/vodafone_store_gavinana"
}, {
    "id": 17604,
    "den": "0",
    "name": "Vodafone Ximenes",
    "sname": "",
    "add": "Viale Leonardo Ximenes 52",
    "cap": "58100",
    "city": "Grosseto",
    "pv": "GR",
    "tel": "055/9103763",
    "latitude": 42.757741,
    "longitude": 11.114163,
    "marker_class": "vodafone_store",
    "surl": "grosseto-vodafone-ximenes",
    "socials": "Facebook~https://www.facebook.com/vodafonestoregrossetoximenes§Instagram~https://instagram.com/vodafone_store_grosseto"
}, {
    "id": 17605,
    "den": "0",
    "name": "Vodafone La Galleria",
    "sname": "",
    "add": "Co Centro Comm.le Ipercoop Snc",
    "cap": "52025",
    "city": "Montevarchi",
    "pv": "AR",
    "tel": "055/9103706",
    "latitude": 43.5228,
    "longitude": 11.56831,
    "marker_class": "vodafone_store",
    "surl": "montevarchi-vodafone-la-galleria",
    "socials": "Facebook~https://www.facebook.com/vodafonestoremontevarchi/§Instagram~https://instagram.com/vodafone_store_montevarchi"
}, {
    "id": 17611,
    "den": "0",
    "name": "Vodafone Merulana",
    "sname": "",
    "add": "Via Merulana 262",
    "cap": "00185",
    "city": "Roma",
    "pv": "RM",
    "tel": "3450850719",
    "latitude": 41.89538,
    "longitude": 12.500011,
    "marker_class": "vodafone_store",
    "surl": "roma-vodafone-merulana",
    "socials": "Facebook~https://www.facebook.com/vodafonestoremerulana/§Instagram~https://instagram.com/vodafoneviamerulana?"
}, {
    "id": 17615,
    "den": "0",
    "name": "Vodafone Nola",
    "sname": "",
    "add": "Via San Paolo Bel Sito 21-23",
    "cap": "80035",
    "city": "Nola",
    "pv": "NA",
    "tel": "081/8234754",
    "latitude": 40.922898,
    "longitude": 14.532209,
    "marker_class": "vodafone_store",
    "surl": "nola-vodafone-nola",
    "socials": "Facebook~https://www.facebook.com/vodafone.store.nola/§Instagram~https://www.instagram.com/vodafone.nola/"
}, {
    "id": 18502,
    "den": "0",
    "name": "Vodafone Cantore",
    "sname": "Giovanni & C.",
    "add": "Via Antonio Cantore 200r",
    "cap": "16149",
    "city": "Genova",
    "pv": "GE",
    "tel": "010 460343",
    "latitude": 44.41071,
    "longitude": 8.903217,
    "marker_class": "vodafone_store",
    "surl": "genova-vodafone-cantore",
    "socials": "Facebook~https://www.facebook.com/VODAFONESTORECANTORE/§Instagram~https://www.instagram.com/vodafonestorecantore/?hl=it"
}, {
    "id": 17454,
    "den": "0",
    "name": "Capriotti G. S.a.s. Di Capriotti Giovanni & C.",
    "sname": "Di Capriotti Giovanni & C.",
    "add": "Via Xx Settembre 241",
    "cap": "16121",
    "city": "Genova",
    "pv": "GE",
    "tel": "010 3021038",
    "latitude": 44.406994,
    "longitude": 8.935738,
    "marker_class": "vodafone_store",
    "surl": "genova-capriotti-g-sas-di-capriotti-giovanni-cvia-xx",
    "socials": "Facebook~https://www.facebook.com/vodafonestorexxsettembre/§Instagram~https://www.instagram.com/vodafonestorexxsettembre/?hl=it"
}, {
    "id": 18503,
    "den": "0",
    "name": "Vodafone Via Firenze",
    "sname": "",
    "add": "Via Firenze 104-104a",
    "cap": "95128",
    "city": "Catania",
    "pv": "CT",
    "tel": "095 387387",
    "latitude": 37.516011,
    "longitude": 15.092445,
    "marker_class": "vodafone_store",
    "surl": "catania-vodafone-via-firenze",
    "socials": "Facebook~https://www.facebook.com/vodafone.catania/§Instagram~https://www.instagram.com/vodafone_catania/"
}, {
    "id": 18504,
    "den": "0",
    "name": "Vodafone C.so Belgio",
    "sname": "Belgio",
    "add": "C.so Belgio 155157",
    "cap": "10153",
    "city": "Torino",
    "pv": "TO",
    "tel": "011 898 9239",
    "latitude": 45.075019,
    "longitude": 7.723731,
    "marker_class": "vodafone_store",
    "surl": "torino-vodafone-cso-belgio",
    "socials": "Facebook~https://www.facebook.com/vodafonetorinoaura/§Instagram~https://www.instagram.com/vodafonestoreaurabelgio/"
}, {
    "id": 962,
    "den": "0",
    "name": "Vodafone Venaria",
    "sname": "Presso Centro Commerciale Auchan Venaria Reale",
    "add": "Corso Garibaldi 235",
    "cap": "10078",
    "city": "Venaria Reale",
    "pv": "TO",
    "tel": "01119585047",
    "latitude": 45.1133002,
    "longitude": 7.6467978,
    "marker_class": "vodafone_store",
    "surl": "venaria-reale-vodafone-venaria",
    "socials": "Facebook~https://www.facebook.com/VodafoneStoreAuraVenaria/§Instagram~https://www.instagram.com/vodafonestoreauravenaria/"
}, {
    "id": 3152,
    "den": "0",
    "name": "Vodafone Store Chivasso",
    "sname": "",
    "add": "Via Po 6",
    "cap": "10034",
    "city": "Chivasso",
    "pv": "TO",
    "tel": "0119172956",
    "latitude": 45.1890765,
    "longitude": 7.8897324,
    "marker_class": "vodafone_store",
    "surl": "chivasso-vodafone-store-chivasso",
    "socials": "Facebook~https://www.facebook.com/VodafoneStoreAuraChivasso/§Instagram~https://www.instagram.com/vodafonestoreaurachivasso/"
}, {
    "id": 18505,
    "den": "0",
    "name": "Vodafone P.za Della Vittoria",
    "sname": "",
    "add": "Piazza Della Vittoria 4547r",
    "cap": "16121",
    "city": "Genova",
    "pv": "GE",
    "tel": "010 588648",
    "latitude": 44.402173,
    "longitude": 8.943834,
    "marker_class": "vodafone_store",
    "surl": "genova-vodafone-pza-della-vittoria",
    "socials": "Facebook~https://www.facebook.com/VodafoneStoreVittoria/§Instagram~https://www.instagram.com/vodafonepiazzadellavittoria/"
}, {
    "id": 18506,
    "den": "0",
    "name": "Vodafone Lido",
    "sname": "",
    "add": "Gran Viale S. Maria Elisabetta 6a",
    "cap": "30126",
    "city": "Venezia",
    "pv": "VE",
    "tel": "041 276 0826",
    "latitude": 45.417633,
    "longitude": 12.369001,
    "marker_class": "vodafone_store",
    "surl": "venezia-vodafone-lido",
    "socials": "Facebook~https://www.facebook.com/VodafoneStoreLidoDiVenezia/§Instagram~https://www.instagram.com/vodafonelido/"
}, {
    "id": 3371,
    "den": "0",
    "name": "Autoservice 2 S.r.l.",
    "sname": "",
    "add": "Via Tempesta 63",
    "cap": "30033",
    "city": "Noale",
    "pv": "VE",
    "tel": "340 860 0882",
    "latitude": 45.554699,
    "longitude": 12.072077,
    "marker_class": "vodafone_store",
    "surl": "noale-autoservice-2-srl",
    "socials": "Facebook~https://www.facebook.com/vodafonestorenoale/§Instagram~https://www.instagram.com/vodafonestorenoale/"
}, {
    "id": 3444,
    "den": "0",
    "name": "Autoservice 2 Srl",
    "sname": "",
    "add": "San Polo 408",
    "cap": "30125",
    "city": "Venezia",
    "pv": "VE",
    "tel": "347 7878089 ",
    "latitude": 45.4393013,
    "longitude": 12.3332348,
    "marker_class": "vodafone_store",
    "surl": "venezia-autoservice-2-srl",
    "socials": "Facebook~https://www.facebook.com/VodafoneStoreRialto/?__tn__=%2Cd%2CP-R&eid=ARBrN7QW7zJzymmx-5TpNk9eZYO6UZOxgRErf7EZxF5ci_cdImQ1Gar3BZWZhL0Ltbgs5FMWKIlOmq6-§Instagram~https://www.instagram.com/vodafonestorerialto/"
}, {
    "id": 18507,
    "den": "0",
    "name": "Vodafone Resana",
    "sname": "",
    "add": "Via Castellana 32",
    "cap": "31023",
    "city": "Resana",
    "pv": "TV",
    "tel": "0423 480699",
    "latitude": 45.635694,
    "longitude": 11.955049,
    "marker_class": "vodafone_store",
    "surl": "resana-vodafone-resana",
    "socials": "Facebook~https://www.facebook.com/CampagnaroResanaVodafoneEuronics/§Instagram~https://www.instagram.com/vodafone_store_resana/"
}, {
    "id": 18508,
    "den": "0",
    "name": "Vodafone Feltre",
    "sname": "",
    "add": "Via Aurora 3",
    "cap": "32032",
    "city": "Feltre",
    "pv": "BL",
    "tel": "043989900",
    "latitude": 46.020414,
    "longitude": 11.897588,
    "marker_class": "vodafone_store",
    "surl": "feltre-vodafone-feltre",
    "socials": "Facebook~https://www.facebook.com/vodafone.store.feltre/§Instagram~https://www.instagram.com/onefeltre/"
}, {
    "id": 18509,
    "den": "0",
    "name": "Vodafone Cimavilla",
    "sname": "",
    "add": "Via Cadore Mare 98",
    "cap": "31013",
    "city": "Cimavilla Di Codogne'",
    "pv": "TV",
    "tel": "0438/794082",
    "latitude": 45.867181,
    "longitude": 12.395242,
    "marker_class": "vodafone_store",
    "surl": "cimavilla-di-codogne039-vodafone-cimavilla",
    "socials": "Facebook~https://www.facebook.com/vodafoneforest/§Instagram~https://www.instagram.com/vodafone.forest/"
}, {
    "id": 582,
    "den": "0",
    "name": "Vodafone Oderzo",
    "sname": "",
    "add": "Via Verdi 5",
    "cap": "31046",
    "city": "Oderzo",
    "pv": "TV",
    "tel": "0422/815120",
    "latitude": 45.78663,
    "longitude": 12.50238,
    "marker_class": "vodafone_store",
    "surl": "oderzo-vodafone-oderzo",
    "socials": "Facebook~https://www.facebook.com/vodafonesintoniaoderzo/§Instagram~https://www.instagram.com/sintoniaoderzo/"
}, {
    "id": 583,
    "den": "0",
    "name": "Vodafone Conegliano",
    "sname": "",
    "add": "Viale Italia 202c",
    "cap": "31015",
    "city": "Conegliano Veneto",
    "pv": "TV",
    "tel": "0438/22492",
    "latitude": 45.8790801,
    "longitude": 12.3102853,
    "marker_class": "vodafone_store",
    "surl": "conegliano-veneto-vodafone-conegliano",
    "socials": "Facebook~https://www.facebook.com/pg/Forest-Vodafone-Conegliano-726374344422330/about/?ref=page_internal§Instagram~https://www.instagram.com/vodafonestoreconegliano/"
}, {
    "id": 584,
    "den": "0",
    "name": "Vodafone Sacile",
    "sname": "",
    "add": "Viale Europa 1",
    "cap": "33077",
    "city": "Sacile",
    "pv": "PN",
    "tel": "0434 735695",
    "latitude": 45.9442885,
    "longitude": 12.4623942,
    "marker_class": "vodafone_store",
    "surl": "sacile-vodafone-sacile",
    "socials": "Facebook~https://www.facebook.com/vodafoneone.forest/§Instagram~https://www.instagram.com/forestvodafonesacile/"
}, {
    "id": 10176,
    "den": "0",
    "name": "Hi-fi Forest S.n.c. Di Forest & C. Presso Centro Commerciale Emisfero",
    "sname": "Presso Centro Commerciale Emisfero",
    "add": "Via Maestri Del Lavoro 42",
    "cap": "33080",
    "city": "Fiume Veneto",
    "pv": "PN",
    "tel": "0434 170 4351",
    "latitude": 45.8667355,
    "longitude": 12.3955508,
    "marker_class": "vodafone_store",
    "surl": "fiume-veneto-hifi-forest-snc-di-forest-c-presso-centro-commerciale-emisfero",
    "socials": "Facebook~https://www.facebook.com/forestvodafonestorefiumeveneto/§Instagram~https://www.instagram.com/vodafone_store_fiume_veneto/"
}, {
    "id": 1890,
    "den": "0",
    "name": "Vodafone Via Mazzini",
    "sname": "",
    "add": "Via Mazzini 67",
    "cap": "91025",
    "city": "Marsala",
    "pv": "TP",
    "tel": "0923/712137",
    "latitude": 37.7951239,
    "longitude": 12.4375397,
    "marker_class": "vodafone_store",
    "surl": "marsala-vodafone-via-mazzini",
    "socials": "Facebook~https://www.facebook.com/VodafoneViaMazzini/§Instagram~https://www.instagram.com/vodafonestoreviamazzini/"
}, {
    "id": 18510,
    "den": "0",
    "name": "Vodafone Villafranca",
    "sname": "",
    "add": "Corso Vittorio Emanuele Ii 67",
    "cap": "37069",
    "city": "Villafranca Di Verona",
    "pv": "VR",
    "tel": "045 2063524 ",
    "latitude": 45.353606,
    "longitude": 10.846028,
    "marker_class": "vodafone_store",
    "surl": "villafranca-di-verona-vodafone-villafranca",
    "socials": "Facebook~https://www.facebook.com/vodafonestorevillafranca/§Instagram~https://www.instagram.com/vodafonevillafrancadiverona/"
}, {
    "id": 605,
    "den": "0",
    "name": "Elettrocasa Cristina Sas Di Gelmett D.,f.&c. Presso Centro Commerciale Grand'affi Shopping",
    "sname": "D.,f.&c. Presso Centro Commerciale Grand'affi Shopping",
    "add": "Localita' Canove 1",
    "cap": "37010",
    "city": "Affi",
    "pv": "VR",
    "tel": "045 2429594 ",
    "latitude": 45.5523073,
    "longitude": 10.7838401,
    "marker_class": "vodafone_store",
    "surl": "affi-elettrocasa-cristina-sas-di-gelmett-dfc-presso-centro-commerciale-grand039affi-shopping",
    "socials": "Facebook~https://www.facebook.com/vodafonestoreaffi/§Instagram~https://www.instagram.com/vodafoneaffi/"
}, {
    "id": 1905,
    "den": "0",
    "name": "Vodafone Rosarno",
    "sname": "Antonio",
    "add": "Via Nazionale Sud 339",
    "cap": "89025",
    "city": "Rosarno",
    "pv": "RC",
    "tel": "0966/774758",
    "latitude": 38.4689258,
    "longitude": 15.9458447,
    "marker_class": "vodafone_store",
    "surl": "rosarno-vodafone-rosarno",
    "socials": "Facebook~https://www.facebook.com/Vodafone-STORE-Rosarno-100679604929193/§Instagram~https://www.instagram.com/vodafone_storerosarno/"
}, {
    "id": 19,
    "den": "0",
    "name": "Vodafone Ponte San Giovanni",
    "sname": "",
    "add": "Via Giuseppe Lunghi 5",
    "cap": "06135",
    "city": "Perugia",
    "pv": "PG",
    "tel": "075/5990655/6",
    "latitude": 43.0880521,
    "longitude": 12.4376392,
    "marker_class": "vodafone_store",
    "surl": "perugia-vodafone-ponte-san-giovanni",
    "socials": "Facebook~https://www.facebook.com/chiaralucestore/§Instagram~https://instagram.com/vodafonestore_chiaraluce?igshid=f3h1nolp5lq3"
}, {
    "id": 986,
    "den": "0",
    "name": "Vodafone P.zza Santa Maria",
    "sname": "",
    "add": "Piazza Santa Maria 1b",
    "cap": "21052",
    "city": "Busto Arsizio",
    "pv": "VA",
    "tel": "0331678704",
    "latitude": 45.6117067,
    "longitude": 8.8501148,
    "marker_class": "vodafone_store",
    "surl": "busto-arsizio-vodafone-pzza-santa-maria",
    "socials": "Facebook~https://www.facebook.com/vodafonebustoarsizio/§Instagram~https://www.instagram.com/vodafonebusto/"
}, {
    "id": 3153,
    "den": "0",
    "name": "Aracne Silvano-legnano",
    "sname": "",
    "add": "Via Verdi 9",
    "cap": "20025",
    "city": "Legnano",
    "pv": "MI",
    "tel": "3408389393",
    "latitude": 45.595993,
    "longitude": 8.916948,
    "marker_class": "vodafone_store",
    "surl": "legnano-aracne-silvanolegnano",
    "socials": "Facebook~https://www.facebook.com/Vodafone-Store-Legnano-1638839656364391/§Instagram~https://www.instagram.com/vodafonestorelegnano/"
}, {
    "id": 17477,
    "den": "0",
    "name": "Aracne Silvano-saronno",
    "sname": "",
    "add": "Piazza Cadorna 24",
    "cap": "21047",
    "city": "Saronno",
    "pv": "VA",
    "tel": "02 3598 0468",
    "latitude": 45.6254181,
    "longitude": 9.0312138,
    "marker_class": "vodafone_store",
    "surl": "saronno-aracne-silvanosaronno",
    "socials": "Facebook~https://www.facebook.com/vodafonesaronno/§Instagram~https://www.instagram.com/vodafonestoresaronno/"
}, {
    "id": 987,
    "den": "0",
    "name": "Vodafone Castelletto Ticino",
    "sname": "Castelletto",
    "add": "Via Sempione 156",
    "cap": "28053",
    "city": "Castelletto Ticino",
    "pv": "NO",
    "tel": "0331/920500",
    "latitude": 45.7197834,
    "longitude": 8.6107668,
    "marker_class": "vodafone_store",
    "surl": "castelletto-ticino-vodafone-castelletto-ticino",
    "socials": "Facebook~https://www.facebook.com/VodafoneStoreCastelletto/§Instagram~https://www.instagram.com/vodafone_castelletto_ticino/"
}, {
    "id": 988,
    "den": "0",
    "name": "Vodafone Borgomanero",
    "sname": "",
    "add": "Via Fratelli Maioni 8",
    "cap": "28021",
    "city": "Borgomanero",
    "pv": "NO",
    "tel": "0322/831486",
    "latitude": 45.7023733,
    "longitude": 8.4617756,
    "marker_class": "vodafone_store",
    "surl": "borgomanero-vodafone-borgomanero",
    "socials": "Facebook~https://www.facebook.com/Vodafone-Store-Borgomanero-190986598123794/§Instagram~https://www.instagram.com/vodafone_store_borgomanero/"
}, {
    "id": 1908,
    "den": "0",
    "name": "Vodafone Via Niscemi",
    "sname": "",
    "add": "Via Niscemi 14",
    "cap": "93012",
    "city": "Gela",
    "pv": "CL",
    "tel": "0933/918994",
    "latitude": 37.0661637,
    "longitude": 14.2574287,
    "marker_class": "vodafone_store",
    "surl": "gela-vodafone-via-niscemi",
    "socials": "Facebook~https://www.facebook.com/Vodafonestoregela/§Instagram~https://www.instagram.com/vodafonestoregela/"
}, {
    "id": 22,
    "den": "0",
    "name": "Kosmo Elettronica Di Cosmo Contrer",
    "sname": "",
    "add": "Via Papa Giovanni Xxiii 4",
    "cap": "04024",
    "city": "Gaeta",
    "pv": "LT",
    "tel": "0771/464649",
    "latitude": 41.2134495,
    "longitude": 13.5661382,
    "marker_class": "vodafone_store",
    "surl": "gaeta-kosmo-elettronica-di-cosmo-contrer",
    "socials": "Facebook~https://www.facebook.com/kosmoelettronica.vodafone/§Instagram~https://instagram.com/vodafone_store_gaeta?igshid=rbac6ubhuvn3"
}, {
    "id": 1921,
    "den": "0",
    "name": "Vodafone Cannizzaro",
    "sname": "",
    "add": "Via Cannizzaro 74",
    "cap": "98122",
    "city": "Messina",
    "pv": "ME",
    "tel": "349 177 5024",
    "latitude": 38.1849647,
    "longitude": 15.5585144,
    "marker_class": "vodafone_store",
    "surl": "messina-vodafone-cannizzaro",
    "socials": "Facebook~https://www.facebook.com/vodafonestorecannizzaro/§Instagram~https://www.instagram.com/bizeta_vodafone_store_messina/"
}, {
    "id": 10309,
    "den": "0",
    "name": "Bi Zeta S.r.l.",
    "sname": "",
    "add": "Via G. Garibaldi 108",
    "cap": "98122",
    "city": "Messina",
    "pv": "ME",
    "tel": "349 702 5362",
    "latitude": 38.1909253,
    "longitude": 15.5568518,
    "marker_class": "vodafone_store",
    "surl": "messina-bi-zeta-srl",
    "socials": "Facebook~https://www.facebook.com/Vodafonemessina/§Instagram~https://www.instagram.com/bizeta_vodafone_store_messina/"
}, {
    "id": 1923,
    "den": "0",
    "name": "Vodafone Secondigliano",
    "sname": "",
    "add": "C.so Secondigliano, 507",
    "cap": "80144",
    "city": "Napoli",
    "pv": "NA",
    "tel": "081/5433027",
    "latitude": 40.8952807,
    "longitude": 14.2581863,
    "marker_class": "vodafone_store",
    "surl": "napoli-vodafone-secondigliano",
    "socials": "Facebook~https://www.facebook.com/Vodafone-Secondigliano-101364984905673/§Instagram~https://instagram.com/vodafone_secondogliano?igshid=6gs68e14ehsu"
}, {
    "id": 1924,
    "den": "0",
    "name": "Vodafone Amantea",
    "sname": "",
    "add": "Viale Margherita 7",
    "cap": "87032",
    "city": "Amantea",
    "pv": "CS",
    "tel": "0982/426091",
    "latitude": 39.134245,
    "longitude": 16.0764145,
    "marker_class": "vodafone_store",
    "surl": "amantea-vodafone-amantea",
    "socials": "Facebook~https://www.facebook.com/telefonoin/§Instagram~https://www.instagram.com/vodafone_amantea/"
}, {
    "id": 635,
    "den": "0",
    "name": "Vodafone Montecchio Emilia",
    "sname": "",
    "add": "Via Prampolini 54c",
    "cap": "42027",
    "city": "Montecchio",
    "pv": "RE",
    "tel": "0522/864818",
    "latitude": 44.6989766,
    "longitude": 10.4488341,
    "marker_class": "vodafone_store",
    "surl": "montecchio-vodafone-montecchio-emilia",
    "socials": "Facebook~https://www.facebook.com/reamanceschivodafone/§Instagram~https://www.instagram.com/vodafonestore_montecchioe.ream/"
}, {
    "id": 1031,
    "den": "0",
    "name": "Vodafone Brigata Liguria",
    "sname": "Itel Telefonia & Commerciale",
    "add": "Via Brigata Liguria 66 R",
    "cap": "16121",
    "city": "Genova",
    "pv": "GE",
    "tel": "010/5535106",
    "latitude": 44.4035164,
    "longitude": 8.9437015,
    "marker_class": "vodafone_store",
    "surl": "genova-vodafone-brigata-liguria",
    "socials": "Facebook~https://www.facebook.com/Vodafonebrigataliguria/§Instagram~https://www.instagram.com/vodafonebrigata/"
}, {
    "id": 1032,
    "den": "0",
    "name": "Telemania Di Miante Samuele & C.",
    "sname": "",
    "add": "Corso Marconi 228",
    "cap": "17014",
    "city": "Cairo Montenotte",
    "pv": "SV",
    "tel": "3423559089",
    "latitude": 44.3893159,
    "longitude": 8.2792092,
    "marker_class": "vodafone_store",
    "surl": "cairo-montenotte-telemania-di-miante-samuele-e-c-sn",
    "socials": "Facebook~https://www.facebook.com/centrovodafone.telemaniacarcare/§Instagram~https://www.instagram.com/vodafonestorevalbormida/"
}, {
    "id": 1033,
    "den": "0",
    "name": "Vodafone Parabiago",
    "sname": "",
    "add": "Via S. Ambrogio 31",
    "cap": "20015",
    "city": "Parabiago",
    "pv": "MI",
    "tel": "0331/495073",
    "latitude": 45.5602236,
    "longitude": 8.9504672,
    "marker_class": "vodafone_store",
    "surl": "parabiago-vodafone-parabiago",
    "socials": "Facebook~https://www.facebook.com/Vodafone-Store-Parabiago-315836745414736/§Instagram~https://www.instagram.com/vodafone_parabiago/"
}, {
    "id": 1932,
    "den": "0",
    "name": "Vodafone Viale Ofanto",
    "sname": "",
    "add": "Via Pio La Torre 24",
    "cap": "71100",
    "city": "Foggia",
    "pv": "FG",
    "tel": "0881/665411",
    "latitude": 41.452088,
    "longitude": 15.551356,
    "marker_class": "vodafone_store",
    "surl": "foggia-vodafone-viale-ofanto",
    "socials": "Facebook~https://www.facebook.com/Vodafone-it-470104296663523/§Instagram~https://www.instagram.com/seleniavodafoneviabari/"
}, {
    "id": 1933,
    "den": "0",
    "name": "Vodafone Lembo",
    "sname": "Di Colavitti Giacomo & C.",
    "add": "Via Paolo Lembo 36a-b",
    "cap": "70124",
    "city": "Bari",
    "pv": "BA",
    "tel": "080/5564433",
    "latitude": 41.1143613,
    "longitude": 16.8660004,
    "marker_class": "vodafone_store",
    "surl": "bari-vodafone-lembo",
    "socials": "Facebook~https://www.facebook.com/colavitti.vodafone.lembo/§Instagram~https://www.instagram.com/vodafone_lembo/"
}, {
    "id": 1935,
    "den": "0",
    "name": "Vodafone Borgo San Rocco",
    "sname": "",
    "add": "Borgo S.rocco 6",
    "cap": "85100",
    "city": "Potenza",
    "pv": "PZ",
    "tel": "0971/23817",
    "latitude": 40.641387,
    "longitude": 15.8126873,
    "marker_class": "vodafone_store",
    "surl": "potenza-vodafone-borgo-san-rocco",
    "socials": "Facebook~https://www.facebook.com/vodafonegallitellosanroccopotenza/§Instagram~https://www.instagram.com/vodafonestoregallitello_srocco/"
}, {
    "id": 1936,
    "den": "0",
    "name": "Vodafone Gallitello",
    "sname": "",
    "add": "Via Del Gallitello 53 A",
    "cap": "85100",
    "city": "Potenza",
    "pv": "PZ",
    "tel": "097/123817",
    "latitude": 40.6384833,
    "longitude": 15.7837832,
    "marker_class": "vodafone_store",
    "surl": "potenza-vodafone-gallitello",
    "socials": ""
}, {
    "id": 639,
    "den": "0",
    "name": "Vodafone Centro Leonardo",
    "sname": "Presso Centro Commerciale Leonardo - Interno K2e",
    "add": "Viale Amendola 129",
    "cap": "40026",
    "city": "Imola",
    "pv": "BO",
    "tel": "3930559198",
    "latitude": 44.3603783,
    "longitude": 11.6969359,
    "marker_class": "vodafone_store",
    "surl": "imola-vodafone-centro-leonardo",
    "socials": "Facebook~https://www.facebook.com/Vodafonestoreimolaleonado/§Instagram~https://www.instagram.com/vodafonestoreimolacentro/"
}, {
    "id": 3446,
    "den": "0",
    "name": "Musicar S.r.l. Centro Borgo Presso Centro Commerciale Ipercoop Centro Borgo",
    "sname": "Presso Centro Commerciale Ipercoop Centro Borgo",
    "add": "Via Marco Emilio Lepido 186",
    "cap": "40132",
    "city": "Bologna",
    "pv": "BO",
    "tel": "340 622 0836",
    "latitude": 44.5198891,
    "longitude": 11.2648133,
    "marker_class": "vodafone_store",
    "surl": "bologna-musicar-srl-centro-borgo-presso-centro-commerciale-ipercoop-centro-borgo",
    "socials": "Facebook~https://www.facebook.com/Vodafone-store-centro-borgo-101928191545231/"
}, {
    "id": 10488,
    "den": "0",
    "name": "Musicar Srl Presso Centro Commerciale Gran Reno",
    "sname": "Presso Centro Commerciale Gran Reno",
    "add": "Via Marilyn Monroe 2",
    "cap": "40033",
    "city": "Casalecchio Di Reno",
    "pv": "BO",
    "tel": "3473174615",
    "latitude": 44.4883942,
    "longitude": 11.2491418,
    "marker_class": "vodafone_store",
    "surl": "casalecchio-di-reno-musicar-srl-presso-centro-commerciale-gran-reno",
    "socials": "Facebook~https://www.facebook.com/Vodafone-store-gran-reno-109832357340453/§Instagram~https://www.instagram.com/vodafonestoregranreno/"
}, {
    "id": 1962,
    "den": "0",
    "name": "Vodafone Us Navy Force",
    "sname": "Presso Naval Support Activity",
    "add": "Contrada Boscariello 2091b",
    "cap": "81030",
    "city": "Gricignano D'aversa",
    "pv": "CE",
    "tel": "081/9799137",
    "latitude": 40.9731743,
    "longitude": 14.2076688,
    "marker_class": "vodafone_store",
    "surl": "gricignano-d039aversa-vodafone-us-navy-force",
    "socials": "Facebook~https://www.facebook.com/vodafonestoregricignano/§Instagram~https://www.instagram.com/vodafone_store_gricignano/"
}, {
    "id": 18511,
    "den": "0",
    "name": "Vodafone Nas I",
    "sname": "Presso Base Sigonella Nas1",
    "add": "Contrada Fontanazza Km 82",
    "cap": "95040",
    "city": "Motta Sant'anastasia",
    "pv": "CT",
    "tel": "095 564493",
    "latitude": 37.467196,
    "longitude": 14.953645,
    "marker_class": "vodafone_store",
    "surl": "motta-sant039anastasia-vodafone-nas-i",
    "socials": "Facebook~https://www.facebook.com/vodafonestoresigonella/§Instagram~https://www.instagram.com/vodafone_store_sigonella/"
}, {
    "id": 78,
    "den": "0",
    "name": "Vodafone Aldo Moro",
    "sname": "",
    "add": "Via Aldo Moro 135-141",
    "cap": "03100",
    "city": "Frosinone",
    "pv": "FR",
    "tel": "0775 271114",
    "latitude": 41.6442133,
    "longitude": 13.3469624,
    "marker_class": "vodafone_store",
    "surl": "frosinone-vodafone-aldo-moro",
    "socials": "Facebook~https://www.facebook.com/VodafoneFrosinone/§Instagram~https://www.instagram.com/vodafone_viaaldomoro_frosinone/"
}, {
    "id": 9434,
    "den": "0",
    "name": "Euroelettronica Srl Presso Centro Commerciale Le Sorgenti",
    "sname": "Presso Centro Commerciale Le Sorgenti",
    "add": "Via Le Lame 10",
    "cap": "03100",
    "city": "Frosinone",
    "pv": "FR",
    "tel": "0775 292806",
    "latitude": 41.6210289,
    "longitude": 13.2850055,
    "marker_class": "vodafone_store",
    "surl": "frosinone-euroelettronica-srl-presso-centro-commerciale-le-sorgenti",
    "socials": "Facebook~https://www.facebook.com/Vodafone-it-429758094063026/§Instagram~https://www.instagram.com/vodafonestoresorgentifrosinone/"
}, {
    "id": 18492,
    "den": "0",
    "name": "Euroelettronica S.r.l.",
    "sname": "",
    "add": "Via Dante Alighieri 2",
    "cap": "03039",
    "city": "Sora",
    "pv": "FR",
    "tel": "0776 172 7934",
    "latitude": 41.71598,
    "longitude": 13.610935,
    "marker_class": "vodafone_store",
    "surl": "sora-euroelettronica-srl",
    "socials": "Facebook~https://www.facebook.com/Vodafone-Store-Sora-102602958199455/§Instagram~https://www.instagram.com/vodafone.store.sora/"
}, {
    "id": 672,
    "den": "0",
    "name": "Vodafone Via Roma",
    "sname": "",
    "add": "Via Roma 27",
    "cap": "46100",
    "city": "Mantova",
    "pv": "MN",
    "tel": "392/5838981",
    "latitude": 45.1572559,
    "longitude": 10.7925247,
    "marker_class": "vodafone_store",
    "surl": "mantova-vodafone-via-roma",
    "socials": "Facebook~https://www.facebook.com/VodafoneStoreViaRomaMantova/§Instagram~https://www.instagram.com/vodafonestoreviaromamantova/"
}, {
    "id": 673,
    "den": "0",
    "name": "Vodafone Bussolengo",
    "sname": "Bussolengo",
    "add": "Localita' Ferlina 11",
    "cap": "37012",
    "city": "Bussolengo",
    "pv": "VR",
    "tel": "392/5851024",
    "latitude": 45.448511,
    "longitude": 10.879474,
    "marker_class": "vodafone_store",
    "surl": "bussolengo-vodafone-bussolengo",
    "socials": "Facebook~https://www.facebook.com/VodafoneStorePortedelladigeVerona/§Instagram~https://www.instagram.com/vodafoneportedelladigeverona/"
}, {
    "id": 674,
    "den": "0",
    "name": "Vodafone Borgo Roma",
    "sname": "Presso Centro Commerciale La Favorita",
    "add": "Piazzale Cesare Beccaria 1",
    "cap": "46100",
    "city": "Mantova",
    "pv": "MN",
    "tel": "392 585 1021",
    "latitude": 45.1686633,
    "longitude": 10.8242598,
    "marker_class": "vodafone_store",
    "surl": "mantova-vodafone-borgo-roma",
    "socials": "Facebook~https://www.facebook.com/VodafoneStoreLaFavoritaMantova/§Instagram~https://www.instagram.com/vodafonestorelafavoritamantova/"
}, {
    "id": 17525,
    "den": "0",
    "name": "Ambra S.r.l. - Via Mazzini",
    "sname": "",
    "add": "Via Mazzini 3",
    "cap": "37121",
    "city": "Verona",
    "pv": "VR",
    "tel": "392 585 2772",
    "latitude": 45.442073,
    "longitude": 10.99766,
    "marker_class": "vodafone_store",
    "surl": "verona-ambra-srl-via-mazzini",
    "socials": "Facebook~https://www.facebook.com/VodafoneStoreViaMazziniVerona/§Instagram~https://www.instagram.com/vodafonestoreviamazziniverona/"
}, {
    "id": 1966,
    "den": "0",
    "name": "Vodafone Ruvo Di Puglia",
    "sname": "Antonio",
    "add": "Via Duca Della Vittoria 40",
    "cap": "70037",
    "city": "Ruvo Di Puglia",
    "pv": "BA",
    "tel": "080/3603048",
    "latitude": 41.117086,
    "longitude": 16.480663,
    "marker_class": "vodafone_store",
    "surl": "ruvo-di-puglia-vodafone-ruvo-di-puglia",
    "socials": "Facebook~https://www.facebook.com/Vodafone-Store-di-Brucoli-Antonio-401044956690664/§Instagram~https://www.instagram.com/storevodafone_ruvodipuglia/"
}, {
    "id": 687,
    "den": "0",
    "name": "Vodafone Lignano",
    "sname": "",
    "add": "Viale Europa 57",
    "cap": "33054",
    "city": "Lignano Sabbiadoro",
    "pv": "UD",
    "tel": "0431 721294",
    "latitude": 45.6867077,
    "longitude": 13.1240125,
    "marker_class": "vodafone_store",
    "surl": "lignano-sabbiadoro-vodafone-lignano",
    "socials": "Facebook~https://www.facebook.com/vodafonelignano/§Instagram~https://www.instagram.com/vodafonestorelignano/"
}, {
    "id": 9441,
    "den": "0",
    "name": "Sostero S.a.s.",
    "sname": "",
    "add": "Via Vendramin 32",
    "cap": "33053",
    "city": "Latisana",
    "pv": "UD",
    "tel": "348 342 8717",
    "latitude": 45.7761602,
    "longitude": 12.9964042,
    "marker_class": "vodafone_store",
    "surl": "latisana-sostero-sas",
    "socials": "Facebook~https://www.facebook.com/VodafoneLatisana/§Instagram~https://www.instagram.com/vodafonestorelatisana/"
}, {
    "id": 689,
    "den": "0",
    "name": "Vodafone Rimini Centro",
    "sname": "",
    "add": "Via Giuseppe Garibaldi 66",
    "cap": "47921",
    "city": "Rimini",
    "pv": "RN",
    "tel": "0541/787516",
    "latitude": 44.0583646,
    "longitude": 12.5670969,
    "marker_class": "vodafone_store",
    "surl": "rimini-vodafone-rimini-centro",
    "socials": "Facebook~https://www.facebook.com/Vodafone-Store-Rimini-Centro-475904885937503/§Instagram~https://www.instagram.com/vodafonestoreriminicentro/"
}, {
    "id": 1133,
    "den": "0",
    "name": "Vodafone Le Terrazze",
    "sname": "Presso Centro Commerciale Le Terrazze",
    "add": "Via Fontevivo 17",
    "cap": "19125",
    "city": "La Spezia",
    "pv": "SP",
    "tel": "0187 575133",
    "latitude": 44.1186895,
    "longitude": 9.8322259,
    "marker_class": "vodafone_store",
    "surl": "la-spezia-vodafone-le-terrazze",
    "socials": "Facebook~https://www.facebook.com/Vodafone-Store-Le-Terrazze-La-Spezia-104856137840298/§Instagram~https://www.instagram.com/vodafonestoreleterrazze/?hl=it"
}, {
    "id": 690,
    "den": "0",
    "name": "Vodafone Via Radici In Piano",
    "sname": "",
    "add": "Via Marco Polo 1",
    "cap": "41049",
    "city": "Sassuolo",
    "pv": "MO",
    "tel": "340 150 0001",
    "latitude": 44.552224,
    "longitude": 10.79213,
    "marker_class": "vodafone_store",
    "surl": "sassuolo-vodafone-via-radici-in-piano",
    "socials": "Facebook~https://www.facebook.com/Vodafonestorecuoghi/§Instagram~https://www.instagram.com/vodafone_store_cuoghi/"
}, {
    "id": 1142,
    "den": "0",
    "name": "Vodafone Verbania",
    "sname": "",
    "add": "C.so Garibaldi 30",
    "cap": "28900",
    "city": "Verbania",
    "pv": "VB",
    "tel": "0323 360058",
    "latitude": 45.9360862,
    "longitude": 8.5715155,
    "marker_class": "vodafone_store",
    "surl": "verbania-vodafone-verbania",
    "socials": "Facebook~https://www.facebook.com/VodafoneVerbania/§Instagram~https://www.instagram.com/vodafonestoreverbania/"
}, {
    "id": 3340,
    "den": "0",
    "name": "Vodafone Fuentes",
    "sname": "Presso Centro Commerciale Fuentes",
    "add": "Via La Rosa Snc",
    "cap": "23010",
    "city": "Piantedo",
    "pv": "SO",
    "tel": "0342030645",
    "latitude": 46.1344424,
    "longitude": 9.4287787,
    "marker_class": "vodafone_store",
    "surl": "piantedo-vodafone-fuentes",
    "socials": "Facebook~https://www.facebook.com/vodafonefuentes/§Instagram~https://www.instagram.com/vodafonefuentes/"
}, {
    "id": 694,
    "den": "0",
    "name": "Vodafone Cervia",
    "sname": "",
    "add": "Viale Roma 15g",
    "cap": "48015",
    "city": "Cervia",
    "pv": "RA",
    "tel": "0544/1694510",
    "latitude": 44.262272,
    "longitude": 12.3518969,
    "marker_class": "vodafone_store",
    "surl": "cervia-vodafone-cervia",
    "socials": "Facebook~https://www.facebook.com/Scattovodafonestore/§Instagram~https://www.instagram.com/vodafonecervia/"
}, {
    "id": 1153,
    "den": "0",
    "name": "Vodafone Alzate Brianza",
    "sname": "",
    "add": "Via Xxv Aprile 111",
    "cap": "22040",
    "city": "Alzate Brianza",
    "pv": "CO",
    "tel": "031/630920",
    "latitude": 45.7672139,
    "longitude": 9.1874437,
    "marker_class": "vodafone_store",
    "surl": "alzate-brianza-vodafone-alzate-brianza",
    "socials": "Facebook~https://www.facebook.com/Vodafone-Store-Alzate-111518707139875/§Instagram~https://www.instagram.com/vodafonestorealzate/"
}, {
    "id": 1154,
    "den": "0",
    "name": "Vodafone San Fedele",
    "sname": "",
    "add": "P.zza S. Fedele 8",
    "cap": "22100",
    "city": "Como",
    "pv": "CO",
    "tel": "031/241810",
    "latitude": 45.809716,
    "longitude": 9.084156,
    "marker_class": "vodafone_store",
    "surl": "como-vodafone-san-fedele",
    "socials": "Facebook~https://www.facebook.com/vodafonestorecomo/§Instagram~https://www.instagram.com/vodafonestorecomosanfedele/"
}, {
    "id": 3449,
    "den": "0",
    "name": "Capelli Angelo E C. S.r.l.",
    "sname": "",
    "add": "Via Donatori Di Sangue 10",
    "cap": "24019",
    "city": "Zogno",
    "pv": "BG",
    "tel": "034591008",
    "latitude": 45.793324,
    "longitude": 9.667764,
    "marker_class": "vodafone_store",
    "surl": "zogno-capelli-angelo-e-c-srl",
    "socials": ""
}, {
    "id": 101,
    "den": "0",
    "name": "Vodafone Terni Stazione",
    "sname": "",
    "add": "Via Della Stazione 40 - 42",
    "cap": "05100",
    "city": "Terni",
    "pv": "TR",
    "tel": "0744/432155",
    "latitude": 42.5689317,
    "longitude": 12.6502317,
    "marker_class": "vodafone_store",
    "surl": "terni-vodafone-terni-stazione",
    "socials": "Facebook~https://www.facebook.com/vodafonestoreterni/§Instagram~https://instagram.com/vodafonestoreternistazione?igshid=o47am3q3ip1b"
}, {
    "id": 1981,
    "den": "0",
    "name": "Vodafone Zona Questura",
    "sname": "Pietro & C.",
    "add": "Corso Garibaldi 569",
    "cap": "89127",
    "city": "Reggio Calabria",
    "pv": "RC",
    "tel": "0965/25146",
    "latitude": 38.1035254,
    "longitude": 15.6383658,
    "marker_class": "vodafone_store",
    "surl": "reggio-calabria-vodafone-zona-questura",
    "socials": "Facebook~https://www.facebook.com/AlTelefoninoRC/§Instagram~https://www.instagram.com/altelefonino_reggiocalabria/"
}, {
    "id": 104,
    "den": "0",
    "name": "Manconi Telefonia Di Manconi Cristian Umberto",
    "sname": "Di Manconi Cristian Umberto",
    "add": "Viale Aldo Moro 191",
    "cap": "07026",
    "city": "Olbia",
    "pv": "OT",
    "tel": "0789/203009",
    "latitude": 40.9375541,
    "longitude": 9.4979808,
    "marker_class": "vodafone_store",
    "surl": "olbia-manconi-telefonia-di-manconi-cristian-umberto",
    "socials": "Facebook~https://www.facebook.com/Vodafonealdomoroolbia/§Instagram~https://instagram.com/vodafonestore191olbia?igshid=1pml2goe8oh4l"
}, {
    "id": 1162,
    "den": "0",
    "name": "Vodafone Sondrio",
    "sname": "",
    "add": "P.le Bertacchi 53",
    "cap": "23100",
    "city": "Sondrio",
    "pv": "SO",
    "tel": "0342/010651",
    "latitude": 46.1682923,
    "longitude": 9.8727071,
    "marker_class": "vodafone_store",
    "surl": "sondrio-vodafone-sondrio",
    "socials": "Facebook~https://www.facebook.com/vodafonesondrio/§Instagram~https://www.instagram.com/vodafonesondrio/"
}, {
    "id": 105,
    "den": "0",
    "name": "Vodafone Tuscolana",
    "sname": "",
    "add": "Via Tuscolana, 1480-1482",
    "cap": "00174",
    "city": "Roma",
    "pv": "RM",
    "tel": "3497412958",
    "latitude": 41.8493929,
    "longitude": 12.5740741,
    "marker_class": "vodafone_store",
    "surl": "roma-vodafone-tuscolana",
    "socials": "Facebook~https://www.facebook.com/vodafonetuscolanaroma/?__tn__=%2Cd%2CP-R&eid=ARC181c5Wu-ayUPdwHy0HwvlCFT9tHvXi1GdlNKbrE-FEl7hsNOhLiamw7DLsfzT_LU2czT5q9lc8Itn§Instagram~https://instagram.com/vodafonestoretuscolanaroma"
}, {
    "id": 11322,
    "den": "0",
    "name": "Vodafone Viale Eritrea",
    "sname": "",
    "add": "Via Del Corso 173",
    "cap": "00186",
    "city": "Roma",
    "pv": "RM",
    "tel": "3480084459",
    "latitude": 41.9026775,
    "longitude": 12.4798644,
    "marker_class": "vodafone_store",
    "surl": "roma-vodafone-viale-eritrea",
    "socials": "Facebook~https://www.facebook.com/vodafonestoreviadelcorsoroma/§Instagram~https://instagram.com/vodafonestoreviadelcorsoroma?"
}, {
    "id": 108,
    "den": "0",
    "name": "Vodafone Cola Di Rienzo",
    "sname": "",
    "add": "Via Cola Di Rienzo 176",
    "cap": "00193",
    "city": "Roma",
    "pv": "RM",
    "tel": "3497404464",
    "latitude": 41.9074617,
    "longitude": 12.4636853,
    "marker_class": "vodafone_store",
    "surl": "roma-vodafone-cola-di-rienzo",
    "socials": "Facebook~https://www.facebook.com/vodafonecoladirienzoroma/§Instagram~https://instagram.com/vodafonecoladirienzo176?"
}, {
    "id": 708,
    "den": "0",
    "name": "Vodafone Zevio",
    "sname": "",
    "add": "P.zza Ungheria 2628",
    "cap": "37059",
    "city": "Zevio",
    "pv": "VR",
    "tel": "045/6050500",
    "latitude": 45.3729156,
    "longitude": 11.1295681,
    "marker_class": "vodafone_store",
    "surl": "zevio-vodafone-zevio",
    "socials": "Facebook~https://www.facebook.com/vodafonestorezevio/§Instagram~https://www.instagram.com/vodafone_zevio/"
}, {
    "id": 3523,
    "den": "0",
    "name": "Vodafone Bovolone",
    "sname": "",
    "add": "Via Giuseppe Garibaldi 78",
    "cap": "37051",
    "city": "Bovolone",
    "pv": "VR",
    "tel": "045 252 8138",
    "latitude": 45.2551661,
    "longitude": 11.125449,
    "marker_class": "vodafone_store",
    "surl": "bovolone-vodafone-bovolone",
    "socials": "Facebook~https://www.facebook.com/vodafonestorebovolone/§Instagram~https://www.instagram.com/vodafone_bovolone/"
}, {
    "id": 710,
    "den": "0",
    "name": "Vodafone Corso A. Pio",
    "sname": "",
    "add": "C.so Alberto Pio 98",
    "cap": "41012",
    "city": "Carpi",
    "pv": "MO",
    "tel": "345 977 3198",
    "latitude": 44.7821569,
    "longitude": 10.8844455,
    "marker_class": "vodafone_store",
    "surl": "carpi-vodafone-corso-a-pio",
    "socials": "Facebook~https://www.facebook.com/Vodafonestorepiocarpi-108557970801442/§Instagram~https://www.instagram.com/vodafone_store_pio_carpi/"
}, {
    "id": 711,
    "den": "0",
    "name": "Vodafone Viale Manzoni",
    "sname": "",
    "add": "Viale Manzoni 137",
    "cap": "41012",
    "city": "Carpi",
    "pv": "MO",
    "tel": "342 7316417",
    "latitude": 44.7908514,
    "longitude": 10.8796035,
    "marker_class": "vodafone_store",
    "surl": "carpi-vodafone-viale-manzoni",
    "socials": "Facebook~https://www.facebook.com/vodafonestorecarpi/§Instagram~https://www.instagram.com/vodafone_store_manzoni_carpi/"
}, {
    "id": 7803,
    "den": "0",
    "name": "Sark S.r.l. 3",
    "sname": "",
    "add": "Via Emilia Centro 207",
    "cap": "41121",
    "city": "Modena",
    "pv": "MO",
    "tel": "347 010 6435",
    "latitude": 44.6470851,
    "longitude": 10.9250966,
    "marker_class": "vodafone_store",
    "surl": "modena-sark-srl-3",
    "socials": "Facebook~https://www.facebook.com/Vodafone-Store-Emilia-Centro-Modena-114444740206466§Instagram~https://www.instagram.com/vodafonestoremodenacentro/"
}, {
    "id": 1985,
    "den": "0",
    "name": "Vodafone Monopoli",
    "sname": "",
    "add": "Via P.manghisi 40",
    "cap": "70043",
    "city": "Monopoli",
    "pv": "BA",
    "tel": "080/8872451",
    "latitude": 40.948979,
    "longitude": 17.303999,
    "marker_class": "vodafone_store",
    "surl": "monopoli-vodafone-monopoli",
    "socials": "Facebook~https://www.facebook.com/VodafoneMonopoli/§Instagram~https://www.instagram.com/vodafone_store_monopoli/"
}, {
    "id": 110,
    "den": "0",
    "name": "Vodafone Casalpalocco",
    "sname": "",
    "add": "Via Pindaro 100",
    "cap": "00124",
    "city": "Roma",
    "pv": "RM",
    "tel": "06/50917893",
    "latitude": 41.75696,
    "longitude": 12.36685,
    "marker_class": "vodafone_store",
    "surl": "roma-vodafone-casalpalocco",
    "socials": "Facebook~https://www.facebook.com/Telefonia2000srl/§Instagram~https://instagram.com/vodafonecasalpalocco?"
}, {
    "id": 1164,
    "den": "0",
    "name": "Vodafone Ventimiglia",
    "sname": "",
    "add": "Via Cavour 4",
    "cap": "18039",
    "city": "Ventimiglia",
    "pv": "IM",
    "tel": "0184/351653",
    "latitude": 43.7929125,
    "longitude": 7.6063317,
    "marker_class": "vodafone_store",
    "surl": "ventimiglia-vodafone-ventimiglia",
    "socials": "Facebook~https://www.facebook.com/Vodafone-Store-Ventimiglia-146380365535198/§Instagram~https://www.instagram.com/vodafonestoreventimiglia/?hl=it"
}, {
    "id": 112,
    "den": "0",
    "name": "Tre L Di Lai Danilo & C. S.a.s",
    "sname": "",
    "add": "Via Is Mirrionis 67",
    "cap": "09121",
    "city": "Cagliari",
    "pv": "CA",
    "tel": "070/271365",
    "latitude": 39.2352254,
    "longitude": 9.1098746,
    "marker_class": "vodafone_store",
    "surl": "cagliari-tre-l-di-lai-danilo-c-sas",
    "socials": "Facebook~https://www.facebook.com/Vodafone-Is-Mirrionis-293233434198477/§Instagram~https://instagram.com/vodafone_is_mirrionis?igshid=1kmrrx8ezhqa8"
}, {
    "id": 717,
    "den": "0",
    "name": "Vodafone Jesolo",
    "sname": "",
    "add": "Via Delle Sirene 9",
    "cap": "30016",
    "city": "Jesolo Lido",
    "pv": "VE",
    "tel": "0421/381962",
    "latitude": 45.50568,
    "longitude": 12.6434,
    "marker_class": "vodafone_store",
    "surl": "jesolo-lido-vodafone-jesolo",
    "socials": "Facebook~https://www.facebook.com/vodafonejesolo/§Instagram~https://www.instagram.com/vodafonestorejesolo/"
}, {
    "id": 719,
    "den": "0",
    "name": "Comtel S.n.c. Di Pian Stefano & Tramacere Toni Christian",
    "sname": "& Tramacere Toni Christian",
    "add": "Viale Della Repubblica 35",
    "cap": "31020",
    "city": "Villorba",
    "pv": "TV",
    "tel": "0422/950663",
    "latitude": 45.6914178,
    "longitude": 12.2504595,
    "marker_class": "vodafone_store",
    "surl": "villorba-comtel-snc-di-pian-stefano-tramacere-toni-christian",
    "socials": "Facebook~https://www.facebook.com/vodafonestorestradaovest/§Instagram~https://www.instagram.com/vodafonestorestradaovest/"
}, {
    "id": 7676,
    "den": "0",
    "name": "Comtel Snc Di Pian S. & Tramacere T Presso Centro Commerciale Le Brentelle",
    "sname": "Presso Centro Commerciale Le Brentelle",
    "add": "Via Della Provvidenza 1",
    "cap": "35030",
    "city": "Sarmeola Di Rubano",
    "pv": "PD",
    "tel": "0497354195",
    "latitude": 45.417997,
    "longitude": 11.82454,
    "marker_class": "vodafone_store",
    "surl": "sarmeola-di-rubano-comtel-snc-di-pian-s-tramacere-t-presso-centro-commerciale-le-brentelle",
    "socials": "Facebook~https://www.facebook.com/vodafonestorelebrentelle/§Instagram~https://www.instagram.com/vodafonestorelebrentelle/"
}, {
    "id": 720,
    "den": "0",
    "name": "Vodafone Montebelluna",
    "sname": "",
    "add": "Via Monte Grappa 48",
    "cap": "31044",
    "city": "Montebelluna",
    "pv": "TV",
    "tel": "0423/302515",
    "latitude": 45.775993,
    "longitude": 12.0334194,
    "marker_class": "vodafone_store",
    "surl": "montebelluna-vodafone-montebelluna",
    "socials": "Facebook~https://www.facebook.com/Vodafone-Serena-Store-Montebelluna-1439795179591501/§Instagram~https://www.instagram.com/vodafone.serenastore/"
}, {
    "id": 1166,
    "den": "0",
    "name": "Vodafone Tortona",
    "sname": "",
    "add": "Piazza Roma, 6c",
    "cap": "15057",
    "city": "Tortona",
    "pv": "AL",
    "tel": "0131 195 8066",
    "latitude": 44.89414,
    "longitude": 8.86214,
    "marker_class": "vodafone_store",
    "surl": "tortona-vodafone-tortona",
    "socials": "Facebook~https://www.facebook.com/vodafonetortona/§Instagram~https://www.instagram.com/vodafonetortona/"
}, {
    "id": 1168,
    "den": "0",
    "name": "Vodafone Acqui Terme",
    "sname": "",
    "add": "Via Garibaldi 2426",
    "cap": "15011",
    "city": "Acqui Terme",
    "pv": "AL",
    "tel": "0144 325106",
    "latitude": 44.6761679,
    "longitude": 8.468955,
    "marker_class": "vodafone_store",
    "surl": "acqui-terme-vodafone-acqui-terme",
    "socials": "Facebook~https://www.facebook.com/vodafoneacquiterme/§Instagram~https://www.instagram.com/vodafoneacquiterme/"
}, {
    "id": 1170,
    "den": "0",
    "name": "Vodafone Via Sestri",
    "sname": "",
    "add": "Via Sestri 153155 R",
    "cap": "16154",
    "city": "Genova",
    "pv": "GE",
    "tel": "392 249 2521",
    "latitude": 44.4246284,
    "longitude": 8.8499701,
    "marker_class": "vodafone_store",
    "surl": "genova-vodafone-via-sestri",
    "socials": "Facebook~https://www.facebook.com/vodafonestoreviasestri/§Instagram~https://www.instagram.com/vodafone_store_sestri_genova/?hl=it"
}, {
    "id": 2047,
    "den": "0",
    "name": "Vodafone Nocera Inferiore",
    "sname": "Maiorino A. & Di Napoli S. & C.",
    "add": "Corso Vittorio Emanuele 4",
    "cap": "84014",
    "city": "Nocera Inferiore",
    "pv": "SA",
    "tel": "081 1851 1772",
    "latitude": 40.7427895,
    "longitude": 14.6414752,
    "marker_class": "vodafone_store",
    "surl": "nocera-inferiore-vodafone-nocera-inferiore",
    "socials": "Facebook~https://www.facebook.com/vodafonestorenocera/§Instagram~https://www.instagram.com/vodafonestorenocera/"
}, {
    "id": 10183,
    "den": "0",
    "name": "Audio Video Elettronica Snc Di Maio Presso Centro Commerciale La Fabbrica",
    "sname": "Presso Centro Commerciale La Fabbrica",
    "add": "Via Tiberio Claudio Felice 50",
    "cap": "84131",
    "city": "Salerno",
    "pv": "SA",
    "tel": "089 285 7234",
    "latitude": 40.6417605,
    "longitude": 14.858103,
    "marker_class": "vodafone_store",
    "surl": "salerno-audio-video-elettronica-snc-di-maio-presso-centro-commerciale-la-fabbrica",
    "socials": "Facebook~https://www.facebook.com/VodafoneStorelaFabbrica/"
}, {
    "id": 114,
    "den": "0",
    "name": "Vodafone Torrevecchia",
    "sname": "",
    "add": "Via Torrevecchia 289",
    "cap": "00168",
    "city": "Roma",
    "pv": "RM",
    "tel": "06 3550 3140",
    "latitude": 41.9277788,
    "longitude": 12.4165335,
    "marker_class": "vodafone_store",
    "surl": "roma-vodafone-torrevecchia",
    "socials": "Facebook~https://www.facebook.com/Vodafone-Store-Torrevecchia-206241340166587/§Instagram~https://instagram.com/vodafone_store_torrevecchia?"
}, {
    "id": 7677,
    "den": "0",
    "name": "Emotion One Sas Di Berto Claudio &",
    "sname": "",
    "add": "Viale Veneto 6",
    "cap": "30015",
    "city": "Sottomarina Di Chioggia",
    "pv": "VE",
    "tel": "045 972437",
    "latitude": 45.295907,
    "longitude": 12.036895,
    "marker_class": "vodafone_store",
    "surl": "sottomarina-di-chioggia-emotion-one-sas-di-berto-claudio-",
    "socials": "Facebook~https://www.facebook.com/vodafonesottomarina/§Instagram~https://www.instagram.com/vodafonestoresottomarina/"
}, {
    "id": 17536,
    "den": "0",
    "name": "Emotion One Sas Di Berto Claudio & Presso Centro Commerciale Piazza Grande",
    "sname": "Presso Centro Commerciale Piazza Grande",
    "add": "Via Fratelli Sanguinazzi 1",
    "cap": "35028",
    "city": "Piove Di Sacco",
    "pv": "PD",
    "tel": "049 547 2473",
    "latitude": 45.295907,
    "longitude": 12.036895,
    "marker_class": "vodafone_store",
    "surl": "piove-di-sacco-emotion-one-sas-di-berto-claudio-presso-centro-commerciale-piazza-grande",
    "socials": "Facebook~https://www.facebook.com/vodafonepiazzagrande/§Instagram~https://www.instagram.com/vodafone_store_piove_di_sacco/"
}, {
    "id": 727,
    "den": "0",
    "name": "Vodafone Suzzara",
    "sname": "& C. Snc",
    "add": "Viale Virgilio 17 B-c",
    "cap": "46029",
    "city": "Suzzara",
    "pv": "MN",
    "tel": "0376/533965",
    "latitude": 44.9929594,
    "longitude": 10.7401235,
    "marker_class": "vodafone_store",
    "surl": "suzzara-vodafone-suzzara",
    "socials": "Facebook~https://www.facebook.com/vodafonestoresuzzaramantova/§Instagram~https://www.instagram.com/vodafonestoresuzzaramantova/"
}, {
    "id": 1177,
    "den": "0",
    "name": "Vodafone Lagrange",
    "sname": "Magazzino Centralizzato",
    "add": "Via Lagrange 25c",
    "cap": "10126",
    "city": "Torino",
    "pv": "TO",
    "tel": "011 532503",
    "latitude": 45.0650933,
    "longitude": 7.6821675,
    "marker_class": "vodafone_store",
    "surl": "torino-vodafone-lagrange",
    "socials": "Facebook~https://www.facebook.com/Vodafone-it-279535732513241/§Instagram~https://www.instagram.com/vodafone_torino/"
}, {
    "id": 1178,
    "den": "0",
    "name": "Vodafone Monte Cucco",
    "sname": "",
    "add": "Corso Montecucco 1g",
    "cap": "10139",
    "city": "Torino",
    "pv": "TO",
    "tel": "011/746853",
    "latitude": 45.074815,
    "longitude": 7.6356849,
    "marker_class": "vodafone_store",
    "surl": "torino-vodafone-monte-cucco",
    "socials": "Facebook~https://www.facebook.com/VodafoneMontecucco/§Instagram~https://www.instagram.com/vodafone_montecucco/"
}, {
    "id": 1179,
    "den": "0",
    "name": "Sassano S.r.l. P.zza Sabotino",
    "sname": "",
    "add": "Piazza Sabotino 1",
    "cap": "10141",
    "city": "Torino",
    "pv": "TO",
    "tel": "011 336479",
    "latitude": 45.0644245,
    "longitude": 7.6495708,
    "marker_class": "vodafone_store",
    "surl": "torino-sassano-srl-pzza-sabotino",
    "socials": "Facebook~https://www.facebook.com/Vodafonesabotino/§Instagram~https://www.instagram.com/vodafone_sabotino/"
}, {
    "id": 9443,
    "den": "0",
    "name": "Sassano Srl Via Principi D Acaja",
    "sname": "",
    "add": "Via Principi D'acaja 40b",
    "cap": "10138",
    "city": "Torino",
    "pv": "TO",
    "tel": "011 1977 2715",
    "latitude": 45.0757629,
    "longitude": 7.6641907,
    "marker_class": "vodafone_store",
    "surl": "torino-sassano-srl-via-principi-d-acaja",
    "socials": "Facebook~https://www.facebook.com/vodafoneportasusa/§Instagram~https://www.instagram.com/vodafone_torino/"
}, {
    "id": 17543,
    "den": "0",
    "name": "Sassano S.r.l. Presso Centro Commerciale Auchan",
    "sname": "Presso Centro Commerciale Auchan",
    "add": "Corso Romania 460",
    "cap": "10156",
    "city": "Torino",
    "pv": "TO",
    "tel": "011 1932 4329",
    "latitude": 45.1175929,
    "longitude": 7.7131051,
    "marker_class": "vodafone_store",
    "surl": "torino-sassano-srl-presso-centro-commerciale-auchan",
    "socials": "Facebook~https://www.facebook.com/Vodafone-Auchan-110980040596625/§Instagram~https://www.instagram.com/vodafoneauchantorino/"
}, {
    "id": 17544,
    "den": "0",
    "name": "Sassano S.r.l. Presso Centro Commerciale Mondojuve",
    "sname": "Presso Centro Commerciale Mondojuve",
    "add": "Strada Della Scarrone Snc",
    "cap": "10042",
    "city": "Nichelino",
    "pv": "TO",
    "tel": "3476668669",
    "latitude": 44.9828307,
    "longitude": 7.6206408,
    "marker_class": "vodafone_store",
    "surl": "nichelino-sassano-srl-presso-centro-commerciale-mondojuve",
    "socials": "Facebook~https://www.facebook.com/Vodafone-mondojuve-107779367560008/§Instagram~https://www.instagram.com/vodafonestoremondojuve/"
}, {
    "id": 18493,
    "den": "0",
    "name": "Sassano S.r.l. Presso Centro Commerciale Le Gru Unita' 64",
    "sname": "Presso Centro Commerciale Le Gru Unita' 64",
    "add": "Via Crea 10",
    "cap": "10095",
    "city": "Grugliasco",
    "pv": "TO",
    "tel": "011 1884 6051",
    "latitude": 45.056816,
    "longitude": 7.612971,
    "marker_class": "vodafone_store",
    "surl": "grugliasco-sassano-srl-presso-centro-commerciale-le-gru-unita039-64",
    "socials": "Facebook~https://www.facebook.com/vodafonelegru2§Instagram~https://www.instagram.com/vodafonestore_legru2/"
}, {
    "id": 2055,
    "den": "0",
    "name": "Vodafone Corigliano",
    "sname": "",
    "add": "Via Nazionale 135",
    "cap": "87068",
    "city": "Corigliano Calabro",
    "pv": "CS",
    "tel": "0983/895872",
    "latitude": 39.626824,
    "longitude": 16.515466,
    "marker_class": "vodafone_store",
    "surl": "corigliano-calabro-vodafone-corigliano",
    "socials": "Facebook~https://www.facebook.com/Vodafonestorecorigliano/§Instagram~https://www.instagram.com/vodafonestorecoriglianoscalo/"
}, {
    "id": 169,
    "den": "0",
    "name": "Vodafone Chieti Scalo",
    "sname": "",
    "add": "Viale Benedetto Croce 339",
    "cap": "66100",
    "city": "Chieti Scalo",
    "pv": "CH",
    "tel": "0871/574484",
    "latitude": 42.3654446,
    "longitude": 14.1413385,
    "marker_class": "vodafone_store",
    "surl": "chieti-scalo-vodafone-chieti-scalo",
    "socials": "Facebook~https://www.facebook.com/vodafonestore.chieti/§Instagram~https://instagram.com/vodafonestore_chietiscalo?igshid=1xjh60ibi9cmy"
}, {
    "id": 729,
    "den": "0",
    "name": "Vodafone Castel San Pietro Terme",
    "sname": "",
    "add": "Via Mazzini 96",
    "cap": "40024",
    "city": "Castel San Pietro Terme",
    "pv": "BO",
    "tel": "051/941270",
    "latitude": 44.4006805,
    "longitude": 11.5922103,
    "marker_class": "vodafone_store",
    "surl": "castel-san-pietro-terme-vodafone-castel-san-pietro-terme",
    "socials": "Facebook~https://www.facebook.com/maghe.emme/§Instagram~https://www.instagram.com/vodafonestore__castelsanpietro/"
}, {
    "id": 177,
    "den": "0",
    "name": "Vodafone Tolentino",
    "sname": "Presso Retail Park",
    "add": "Contrada Pace Snc",
    "cap": "62029",
    "city": "Tolentino",
    "pv": "MC",
    "tel": "0733 973760",
    "latitude": 43.2088828,
    "longitude": 13.2847426,
    "marker_class": "vodafone_store",
    "surl": "tolentino-vodafone-tolentino",
    "socials": "Facebook~https://www.facebook.com/vodafonestorepaoluccitolentino/§Instagram~https://instagram.com/vodafone_tolentino?igshid=171ag4278q57k"
}, {
    "id": 178,
    "den": "0",
    "name": "Vodafone Civitanova Marche",
    "sname": "",
    "add": "Corso Umberto I 193",
    "cap": "62013",
    "city": "Civitanova Marche",
    "pv": "MC",
    "tel": "0733 781286",
    "latitude": 43.31085,
    "longitude": 13.725902,
    "marker_class": "vodafone_store",
    "surl": "civitanova-marche-vodafone-civitanova-marche",
    "socials": "Facebook~https://www.facebook.com/vodafonestorepaoluccicivitanova/§Instagram~https://instagram.com/vodafone_civitanova_corso?igshid=14nrhgocwf19p"
}, {
    "id": 179,
    "den": "0",
    "name": "Vodafone Val Di Chienti",
    "sname": "Presso Centro Commerciale Val Di Chienti",
    "add": "Via Giovan Battista Velluti 37",
    "cap": "62100",
    "city": "Piediripa",
    "pv": "MC",
    "tel": "342 7788888",
    "latitude": 43.2748252,
    "longitude": 13.4859053,
    "marker_class": "vodafone_store",
    "surl": "piediripa-vodafone-val-di-chienti",
    "socials": "Facebook~https://www.facebook.com/VodafoneStorePaolucci/?ref=br_rs§Instagram~https://instagram.com/vodafonevaldichienti?igshid=1ro2j7m7awu2f"
}, {
    "id": 731,
    "den": "0",
    "name": "Vodafone Marconi",
    "sname": "",
    "add": "V.le Marconi 180",
    "cap": "47521",
    "city": "Cesena",
    "pv": "FC",
    "tel": "0547/645881",
    "latitude": 44.13822,
    "longitude": 12.2599893,
    "marker_class": "vodafone_store",
    "surl": "cesena-vodafone-marconi",
    "socials": "Facebook~https://www.facebook.com/SarElettronica/§Instagram~https://www.instagram.com/vodafone_sarcesena/"
}, {
    "id": 732,
    "den": "0",
    "name": "Vodafone Decio Raggi",
    "sname": "",
    "add": "Via Decio Raggi 40",
    "cap": "47121",
    "city": "Forli'",
    "pv": "FC",
    "tel": "0543/554588",
    "latitude": 44.21362,
    "longitude": 12.0390848,
    "marker_class": "vodafone_store",
    "surl": "forli039-vodafone-decio-raggi",
    "socials": "Facebook~https://www.facebook.com/VodafoneDecioRaggi/§Instagram~https://www.instagram.com/vodafone_decioraggi/"
}, {
    "id": 735,
    "den": "0",
    "name": "Vodafone Punta Di Ferro",
    "sname": "Presso Centro Commerciale La Punta- Loc.66",
    "add": "P.zza Della Cooperazione 2",
    "cap": "47122",
    "city": "Forli'",
    "pv": "FC",
    "tel": "0543/723335",
    "latitude": 44.22413,
    "longitude": 12.054871,
    "marker_class": "vodafone_store",
    "surl": "forli039-vodafone-punta-di-ferro",
    "socials": "Facebook~https://www.facebook.com/VodafonePuntadiferro/§Instagram~https://www.instagram.com/vodafone_puntadiferro/"
}, {
    "id": 2064,
    "den": "0",
    "name": "Vodafone Catanzaro Lido",
    "sname": "",
    "add": "Via N.sauro 33",
    "cap": "88100",
    "city": "Catanzaro Lido",
    "pv": "CZ",
    "tel": "0961 737731",
    "latitude": 38.8201114,
    "longitude": 16.6126541,
    "marker_class": "vodafone_store",
    "surl": "catanzaro-lido-vodafone-catanzaro-lido",
    "socials": "Facebook~https://www.facebook.com/VodafoneStoreCatanzaro/§Instagram~https://www.instagram.com/vodafonestorecatanzarolido/"
}, {
    "id": 2067,
    "den": "0",
    "name": "Vodafone Belvedere",
    "sname": "",
    "add": "Corso Mediterraneo 315317",
    "cap": "87029",
    "city": "Scalea",
    "pv": "CS",
    "tel": "0985/20261",
    "latitude": 39.8108993,
    "longitude": 15.7897299,
    "marker_class": "vodafone_store",
    "surl": "scalea-vodafone-belvedere",
    "socials": "Facebook~https://www.facebook.com/vodafonestorescalea/?ref=br_rs§Instagram~https://www.instagram.com/vodafonestorescalea/"
}, {
    "id": 739,
    "den": "0",
    "name": "Vodafone V.le Navigazione Interna",
    "sname": "",
    "add": "Viale Della Navigaz. Interna 511",
    "cap": "35129",
    "city": "Padova",
    "pv": "PD",
    "tel": "0498079191",
    "latitude": 45.4087985,
    "longitude": 11.9284426,
    "marker_class": "vodafone_store",
    "surl": "padova-vodafone-vle-navigazione-interna",
    "socials": "Facebook~https://www.facebook.com/euroservicehq.it/§Instagram~https://www.instagram.com/storenavigazione/"
}, {
    "id": 740,
    "den": "0",
    "name": "Euroservice S.r.l.",
    "sname": "",
    "add": "Via Fiume 10",
    "cap": "35100",
    "city": "Padova",
    "pv": "PD",
    "tel": "0498364227",
    "latitude": 45.4074475,
    "longitude": 11.8743848,
    "marker_class": "vodafone_store",
    "surl": "padova-euroservice-srl",
    "socials": "Facebook~https://www.facebook.com/vodafoneviafiume/§Instagram~https://www.instagram.com/vodafoneviafiume10/"
}, {
    "id": 7727,
    "den": "0",
    "name": "Euroservice S.r.l.",
    "sname": "",
    "add": "Via Roma 32",
    "cap": "35122",
    "city": "Padova",
    "pv": "PD",
    "tel": "049/8752106",
    "latitude": 45.4058044,
    "longitude": 11.876374,
    "marker_class": "vodafone_store",
    "surl": "padova-euroservice-srl",
    "socials": "Facebook~https://www.facebook.com/vodafoneviaroma/§Instagram~https://www.instagram.com/vodafoneviaroma32/"
}, {
    "id": 1220,
    "den": "0",
    "name": "Vodafone Porta Nuova",
    "sname": "",
    "add": "Viale Papa Giovanni Xxiii 24",
    "cap": "24121",
    "city": "Bergamo",
    "pv": "BG",
    "tel": "3487559509",
    "latitude": 45.6936833,
    "longitude": 9.6709881,
    "marker_class": "vodafone_store",
    "surl": "bergamo-vodafone-porta-nuova",
    "socials": "Facebook~https://www.facebook.com/vodafonebergamo/§Instagram~https://www.instagram.com/vodafonestorebergamo/"
}, {
    "id": 1221,
    "den": "0",
    "name": "Vodafone Alle Valli",
    "sname": "Presso Centro Commerciale Alle Valli",
    "add": "Via Brusaporto 41",
    "cap": "24068",
    "city": "Seriate",
    "pv": "BG",
    "tel": "344 280 1185",
    "latitude": 45.6793938,
    "longitude": 9.7453231,
    "marker_class": "vodafone_store",
    "surl": "seriate-vodafone-alle-valli",
    "socials": "Facebook~https://www.facebook.com/Vodafone-Store-Seriate-103563197972742/§Instagram~https://www.instagram.com/vodafone_allevalli/"
}, {
    "id": 17550,
    "den": "0",
    "name": "Segni Srl Presso Centro Commerciale Auchan Curno",
    "sname": "Presso Centro Commerciale Auchan Curno",
    "add": "Via Enrico Fermi 1",
    "cap": "24035",
    "city": "Curno",
    "pv": "BG",
    "tel": "348 333 5449",
    "latitude": 45.6830789,
    "longitude": 9.6099336,
    "marker_class": "vodafone_store",
    "surl": "curno-segni-srl-presso-centro-commerciale-auchan-di-curno",
    "socials": "Facebook~https://www.facebook.com/Vodafonestorecurno/?ref=br_rs§Instagram~https://www.instagram.com/vodafonecurno/"
}, {
    "id": 18494,
    "den": "0",
    "name": "Segni Srl",
    "sname": "",
    "add": "Via Xx Settembre 22",
    "cap": "24122",
    "city": "Bergamo",
    "pv": "BG",
    "tel": "348 755 9509",
    "latitude": 45.693498,
    "longitude": 9.667454,
    "marker_class": "vodafone_store",
    "surl": "bergamo-segni-srl",
    "socials": "Facebook~https://www.facebook.com/vodafonebergamoviaxxsettembre/§Instagram~https://www.instagram.com/vodafonestorebergamo/"
}, {
    "id": 751,
    "den": "0",
    "name": "Vodafone Le Piramidi",
    "sname": "Presso Centro Commerciale Le Piramidi",
    "add": "Via Pola 20",
    "cap": "36100",
    "city": "Torri Di Quartesolo",
    "pv": "VI",
    "tel": "0444/269336",
    "latitude": 45.5093005,
    "longitude": 11.6283526,
    "marker_class": "vodafone_store",
    "surl": "torri-di-quartesolo-vodafone-le-piramidi",
    "socials": "Facebook~https://www.facebook.com/Vodafonestorelepiramidi/§Instagram~https://www.instagram.com/vodafonestorelepiramidi/"
}, {
    "id": 18512,
    "den": "0",
    "name": "Vodafone San Lazzaro",
    "sname": "",
    "add": "Viale San Lazzaro 161",
    "cap": "36100",
    "city": "Vicenza",
    "pv": "VI",
    "tel": "0444 267312",
    "latitude": 45.537477,
    "longitude": 11.515322,
    "marker_class": "vodafone_store",
    "surl": "vicenza-vodafone-san-lazzaro",
    "socials": "Facebook~https://www.facebook.com/vodafonestoreSanLazzaro/§Instagram~https://www.instagram.com/vodafonestorevicenza/"
}, {
    "id": 17552,
    "den": "0",
    "name": "Media Planet Srl Presso Centro Commerciale Palladio",
    "sname": "",
    "add": "Strada Padana Verso Padova 60",
    "cap": "36100",
    "city": "Vicenza",
    "pv": "VI",
    "tel": "0444 144 1672",
    "latitude": 45.5454787,
    "longitude": 11.5354214,
    "marker_class": "vodafone_store",
    "surl": "vicenza-media-planet-srl-palladio",
    "socials": "Facebook~https://www.facebook.com/vodafonestorepalladio/§Instagram~https://www.instagram.com/vodafonestorepalladio/"
}, {
    "id": 1222,
    "den": "0",
    "name": "Desenzano Trade Srl Presso Centro Commerciale Le Vele",
    "sname": "Presso Centro Commerciale Le Vele",
    "add": "Via Marconi Co C.c.le Vele",
    "cap": "25015",
    "city": "Desenzano Del Garda",
    "pv": "BS",
    "tel": "030/9121833",
    "latitude": 45.4714531,
    "longitude": 10.5333351,
    "marker_class": "vodafone_store",
    "surl": "desenzano-del-garda-desenzano-trade-srl-presso-centro-commerciale-le-vele",
    "socials": "Facebook~https://www.facebook.com/SaloTronyDesenzanoLeone/§Instagram~https://www.instagram.com/vodafonestorelevele/"
}, {
    "id": 2114,
    "den": "0",
    "name": "Vodafone Acireale",
    "sname": "",
    "add": "C.so Umberto 6870",
    "cap": "95024",
    "city": "Acireale",
    "pv": "CT",
    "tel": "346 603 6908",
    "latitude": 37.6151365,
    "longitude": 15.1662885,
    "marker_class": "vodafone_store",
    "surl": "acireale-vodafone-acireale",
    "socials": "Facebook~https://www.facebook.com/Vodafone-it-1789878014658479/§Instagram~https://www.instagram.com/vodafonestorepianeta/"
}, {
    "id": 2115,
    "den": "0",
    "name": "Vodafone Il Ciclope",
    "sname": "Centro Commerciale Ciclope",
    "add": "Via Madonna Delle Grazie 8",
    "cap": "95024",
    "city": "Acireale",
    "pv": "CT",
    "tel": "348 150 9636",
    "latitude": 37.607802,
    "longitude": 15.166736,
    "marker_class": "vodafone_store",
    "surl": "acireale-vodafone-il-ciclope",
    "socials": "Facebook~https://www.facebook.com/vodafonestorepianeta/§Instagram~https://www.instagram.com/vodafonestoreciclope/"
}, {
    "id": 2928,
    "den": "0",
    "name": "Pianeta Telefono S.r.l.",
    "sname": "",
    "add": "Corso Delle Provincie 10",
    "cap": "95129",
    "city": "Catania",
    "pv": "CT",
    "tel": "344 256 3457",
    "latitude": 37.515864,
    "longitude": 15.097968,
    "marker_class": "vodafone_store",
    "surl": "catania-pianeta-telefono-srl",
    "socials": "Facebook~https://www.facebook.com/vodafonestorepianeta/§Instagram~https://www.instagram.com/vodafonestorepianeta/"
}, {
    "id": 9911,
    "den": "0",
    "name": "Pianeta Telefono S.r.l.",
    "sname": "",
    "add": "Viale Vittorio Veneto 193-195",
    "cap": "95127",
    "city": "Catania",
    "pv": "CT",
    "tel": "348 498 4861",
    "latitude": 37.5222781,
    "longitude": 15.0961431,
    "marker_class": "vodafone_store",
    "surl": "catania-pianeta-telefono-srl",
    "socials": "Facebook~https://www.facebook.com/vodafonestorepianeta/§Instagram~https://www.instagram.com/vodafonestorepianeta/"
}, {
    "id": 17553,
    "den": "0",
    "name": "Pianeta Telefono S.r.l. Presso Centro Commerciale Sileamare",
    "sname": "Presso Centro Commerciale Sileamare",
    "add": "Via Eroi Di Podrute 3",
    "cap": "31057",
    "city": "Silea",
    "pv": "TV",
    "tel": "0422 145 3993",
    "latitude": 45.6511224,
    "longitude": 12.3084865,
    "marker_class": "vodafone_store",
    "surl": "silea-pianeta-telefono-srl-presso-centro-commerciale-sileamare",
    "socials": "Facebook~https://www.facebook.com/vodafonestoresileamare/§Instagram~https://www.instagram.com/vodafonesileamare/"
}, {
    "id": 206,
    "den": "0",
    "name": "Vodafone Sant'anna",
    "sname": "",
    "add": "Viale Giacomo Puccini 147",
    "cap": "55100",
    "city": "Lucca",
    "pv": "LU",
    "tel": "0583/587630",
    "latitude": 43.8434463,
    "longitude": 10.4894423,
    "marker_class": "vodafone_store",
    "surl": "lucca-vodafone-sant039anna",
    "socials": "Facebook~https://www.facebook.com/vodafonestoresantannalucca/§Instagram~https://instagram.com/vodafonestore.santannalucca?igshid=kdaosjmk9bgp"
}, {
    "id": 17554,
    "den": "0",
    "name": "You And Me Srl",
    "sname": "",
    "add": "Via Dante Alighieri Loc. Aranc 197",
    "cap": "55100",
    "city": "Lucca",
    "pv": "LU",
    "tel": "0583/950382",
    "latitude": 43.8433831,
    "longitude": 10.489397,
    "marker_class": "vodafone_store",
    "surl": "lucca-you-and-me-srl",
    "socials": "Facebook~https://www.facebook.com/vodafonestorearanciolucca/§Instagram~https://instagram.com/vodafonestore.aranciolucca?igshid=14y3hie52stcg"
}, {
    "id": 2147,
    "den": "0",
    "name": "Vodafone Cava Dei Tirreni",
    "sname": "",
    "add": "Corso Umberto I 316",
    "cap": "84013",
    "city": "Cava Dei Tirreni",
    "pv": "SA",
    "tel": "089 285 3483",
    "latitude": 40.707023,
    "longitude": 14.7032,
    "marker_class": "vodafone_store",
    "surl": "cava-dei-tirreni-vodafone-cava-dei-tirreni",
    "socials": "Facebook~https://www.facebook.com/vodafonestorecava/§Instagram~https://www.instagram.com/vodafonecava/"
}, {
    "id": 9445,
    "den": "0",
    "name": "S.t.r. Srl",
    "sname": "",
    "add": "Corso Umberto I 125",
    "cap": "80058",
    "city": "Torre Annunziata",
    "pv": "NA",
    "tel": "081 1955 9798",
    "latitude": 40.7599031,
    "longitude": 14.4329832,
    "marker_class": "vodafone_store",
    "surl": "torre-annunziata-str-srl",
    "socials": "Facebook~https://www.facebook.com/vodafonestoretorre/§Instagram~https://www.instagram.com/vodafonestoretorreannunziata/"
}, {
    "id": 756,
    "den": "0",
    "name": "Vodafone Cento",
    "sname": "",
    "add": "Via Ferrarese 1 C",
    "cap": "44042",
    "city": "Cento",
    "pv": "FE",
    "tel": "051/903589",
    "latitude": 44.7322099,
    "longitude": 11.2911036,
    "marker_class": "vodafone_store",
    "surl": "cento-vodafone-cento",
    "socials": "Facebook~https://www.facebook.com/VodafoneStoreCento/§Instagram~https://www.instagram.com/vodafonestorecento/"
}, {
    "id": 761,
    "den": "0",
    "name": "Vodafone Farini",
    "sname": "& C. S.a.s.",
    "add": "Via Farini 15b",
    "cap": "43121",
    "city": "Parma",
    "pv": "PR",
    "tel": "0521/508117",
    "latitude": 44.7999172,
    "longitude": 10.3277365,
    "marker_class": "vodafone_store",
    "surl": "parma-vodafone-farini",
    "socials": "Facebook~https://www.facebook.com/vodafonestorefarini/§Instagram~https://www.instagram.com/vodafonestorefariniparma/"
}, {
    "id": 2152,
    "den": "0",
    "name": "Vodafone Sorrento",
    "sname": "",
    "add": "Via Degli Aranci 66",
    "cap": "80067",
    "city": "Sorrento",
    "pv": "NA",
    "tel": "081/8075880",
    "latitude": 40.6236277,
    "longitude": 14.3743678,
    "marker_class": "vodafone_store",
    "surl": "sorrento-vodafone-sorrento",
    "socials": "Facebook~https://www.facebook.com/VodafoneSorrento/§Instagram~https://www.instagram.com/vodafone_store_sorrento/"
}, {
    "id": 768,
    "den": "0",
    "name": "Vodafone Guizza",
    "sname": "",
    "add": "Via Guizza 226",
    "cap": "35125",
    "city": "Padova",
    "pv": "PD",
    "tel": "049/8800359",
    "latitude": 45.37822,
    "longitude": 11.87066,
    "marker_class": "vodafone_store",
    "surl": "padova-vodafone-guizza",
    "socials": "Facebook~https://www.facebook.com/Vodafone-Guizza-Montegrotto-360913550700051/§Instagram~https://www.instagram.com/vodafonestoreguizzapadova/"
}, {
    "id": 244,
    "den": "0",
    "name": "Vodafone Sinalunga",
    "sname": "",
    "add": "Via Trento 196",
    "cap": "53048",
    "city": "Sinalunga",
    "pv": "SI",
    "tel": "0577/631011",
    "latitude": 43.2138956,
    "longitude": 11.7561515,
    "marker_class": "vodafone_store",
    "surl": "sinalunga-vodafone-sinalunga",
    "socials": "Facebook~https://www.facebook.com/vodafonestoresinalunga§Instagram~https://www.instagram.com/vodafone_sinalunga/"
}, {
    "id": 2163,
    "den": "0",
    "name": "Vodafone Fisciano",
    "sname": "",
    "add": "Via San Rocco 30",
    "cap": "84080",
    "city": "Fisciano",
    "pv": "SA",
    "tel": "089/891225",
    "latitude": 40.761091,
    "longitude": 14.79288,
    "marker_class": "vodafone_store",
    "surl": "fisciano-vodafone-fisciano",
    "socials": "Facebook~https://www.facebook.com/trudavodafonestrorefisciano/§Instagram~https://www.instagram.com/vodafone_truda_store/"
}, {
    "id": 2166,
    "den": "0",
    "name": "Vodafone Due Mari",
    "sname": "Presso C.comm.i Due Mari",
    "add": "Contrada Comuni Condomini",
    "cap": "88025",
    "city": "Maida",
    "pv": "CZ",
    "tel": "0968 190 6025",
    "latitude": 38.8969715,
    "longitude": 16.3342382,
    "marker_class": "vodafone_store",
    "surl": "maida-vodafone-due-mari",
    "socials": "Facebook~https://www.facebook.com/VodafoneDueMari/§Instagram~https://www.instagram.com/vodafoneduemari/"
}, {
    "id": 18513,
    "den": "0",
    "name": "Vodafone Le Fontane",
    "sname": "Presso C.comm.le Fontane",
    "add": "Viale Emilia 61",
    "cap": "88100",
    "city": "Catanzaro",
    "pv": "CZ",
    "tel": "0961 719423",
    "latitude": 38.84916,
    "longitude": 16.64399,
    "marker_class": "vodafone_store",
    "surl": "catanzaro-vodafone-le-fontane",
    "socials": "Facebook~https://www.facebook.com/VodafoneLeFontane/§Instagram~https://www.instagram.com/vodafonelefontane/"
}, {
    "id": 2168,
    "den": "0",
    "name": "Vodafone Rende",
    "sname": "",
    "add": "Via G. Rossini 155a-b",
    "cap": "87036",
    "city": "Rende",
    "pv": "CS",
    "tel": "0984 163 2248",
    "latitude": 39.345627,
    "longitude": 16.242217,
    "marker_class": "vodafone_store",
    "surl": "rende-vodafone-rende",
    "socials": "Facebook~https://www.facebook.com/RossoVodafone-130231970365578/§Instagram~https://www.instagram.com/vodafonerende/"
}, {
    "id": 2169,
    "den": "0",
    "name": "Vodafone Taranto",
    "sname": "Auchan",
    "add": "Via Per San Giorgio Jonico Snc",
    "cap": "74121",
    "city": "Taranto",
    "pv": "TA",
    "tel": "099/7793900",
    "latitude": 40.4643606,
    "longitude": 17.2470303,
    "marker_class": "vodafone_store",
    "surl": "taranto-vodafone-taranto",
    "socials": "Facebook~https://www.facebook.com/RossoVodafone-130231970365578/§Instagram~https://www.instagram.com/vodafonetaranto/"
}, {
    "id": 2170,
    "den": "0",
    "name": "Vodafone Ciro' Marina",
    "sname": "",
    "add": "Via Roma 22",
    "cap": "88811",
    "city": "Ciro'marina",
    "pv": "KR",
    "tel": "0962 190 2186",
    "latitude": 39.368892,
    "longitude": 17.131342,
    "marker_class": "vodafone_store",
    "surl": "ciro039marina-vodafone-ciro039-marina",
    "socials": "Facebook~https://www.facebook.com/Vodafone-Cir%C3%B2-Marina-108281307581658/§Instagram~https://www.instagram.com/vodafoneciromarina/"
}, {
    "id": 2171,
    "den": "0",
    "name": "Vodafone Via Vittorio Veneto",
    "sname": "",
    "add": "Via Vittorio Veneto 25",
    "cap": "88900",
    "city": "Crotone",
    "pv": "KR",
    "tel": "0962/665070",
    "latitude": 39.0802097,
    "longitude": 17.1265655,
    "marker_class": "vodafone_store",
    "surl": "crotone-vodafone-via-vittorio-veneto",
    "socials": "Facebook~https://www.facebook.com/RossoVodafone-130231970365578/§Instagram~https://www.instagram.com/vodafonecrotone/"
}, {
    "id": 2173,
    "den": "0",
    "name": "Vodafone Casamassima",
    "sname": "Presso C.comm.le Auchan Casamassima",
    "add": "Via Noicattaro 2",
    "cap": "70010",
    "city": "Casamassima",
    "pv": "BA",
    "tel": "080 849 1074",
    "latitude": 40.9597645,
    "longitude": 16.9224602,
    "marker_class": "vodafone_store",
    "surl": "casamassima-vodafone-casamassima",
    "socials": "Facebook~https://www.facebook.com/RossoVodafone-130231970365578/§Instagram~https://www.instagram.com/vodafonestorecasamassima/"
}, {
    "id": 2929,
    "den": "0",
    "name": "Planet Ferraro Srl Presso Centro Commerciale Le Colonne",
    "sname": "Presso Centro Commerciale Le Colonne",
    "add": "Strada Statale 7 Km 712",
    "cap": "72100",
    "city": "Brindisi",
    "pv": "BR",
    "tel": "08311821238",
    "latitude": 40.618313,
    "longitude": 17.902575,
    "marker_class": "vodafone_store",
    "surl": "brindisi-planet-ferraro-srl-presso-centro-commerciale-le-colonne",
    "socials": "Facebook~https://www.facebook.com/RossoVodafone-130231970365578/§Instagram~https://www.instagram.com/vodafonestorebrindisi/"
}, {
    "id": 7089,
    "den": "0",
    "name": "Planet Ferraro Srl Presso Ipermercato Carrefour Iper",
    "sname": "Presso Ipermercato Carrefour Iper",
    "add": "Via Beato Francesco Marino 5",
    "cap": "87040",
    "city": "Zumpano",
    "pv": "CS",
    "tel": "0984 413205",
    "latitude": 39.3121506,
    "longitude": 16.2633765,
    "marker_class": "vodafone_store",
    "surl": "zumpano-planet-ferraro-srl-presso-ipermercato-carrefour-iper",
    "socials": "Facebook~https://www.facebook.com/RossoVodafone-130231970365578/§Instagram~https://www.instagram.com/vodafonezumpano/"
}, {
    "id": 249,
    "den": "0",
    "name": "Vodafone Tuscolana",
    "sname": "",
    "add": "Via Tuscolana 735",
    "cap": "00174",
    "city": "Roma",
    "pv": "RM",
    "tel": "06 8769 1373",
    "latitude": 41.8631347,
    "longitude": 12.5499102,
    "marker_class": "vodafone_store",
    "surl": "roma-vodafone-tuscolana",
    "socials": "Facebook~https://www.facebook.com/vodafonetuscolana2roma/§Instagram~https://instagram.com/vodafonestoretuscolana2"
},